,%time,field.header.seq,field.header.stamp,field.header.frame_id,field.tow,field.heading,field.n_sats,field.flags
0,1618763951982499143,1,1618763951980361938,,59970600,54594,13,4
1,1618763952265709992,2,1618763952265067100,,59970800,54716,13,4
2,1618763952470669651,3,1618763952466574907,,59971000,54754,13,4
3,1618763952572996338,4,1618763952568240880,,59971200,54766,13,4
4,1618763952873061008,5,1618763952872515916,,59971400,54813,13,4
5,1618763953154018195,6,1618763953153394937,,59971600,54972,13,4
6,1618763953291724850,7,1618763953290519952,,59971800,55011,13,4
7,1618763953465658771,8,1618763953464584112,,59972000,55327,13,4
8,1618763953671748301,9,1618763953669352054,,59972200,55460,13,4
9,1618763953874474427,10,1618763953873056888,,59972400,55486,13,4
10,1618763954095358588,11,1618763954095063924,,59972600,55565,13,4
11,1618763954273996513,12,1618763954270333051,,59972800,55622,13,4
12,1618763954472337753,13,1618763954470048904,,59973000,55956,13,4
13,1618763954667709621,14,1618763954667207956,,59973200,56100,13,4
14,1618763954877276384,15,1618763954871892929,,59973400,56355,13,4
15,1618763955130087857,16,1618763955129651069,,59973600,56486,13,4
16,1618763955222631737,17,1618763955222171068,,59973800,56330,13,4
17,1618763955385867293,18,1618763955385440111,,59974000,56677,13,4
18,1618763955566460499,19,1618763955562382936,,59974200,0,0,0
19,1618763955781049551,20,1618763955779467105,,59974400,0,0,0
20,1618763955940749216,21,1618763955939588069,,59974600,0,0,0
21,1618763956142437027,22,1618763956141957998,,59974800,0,0,0
22,1618763956379640267,23,1618763956376988887,,59975000,57642,13,4
23,1618763956581089636,24,1618763956580652952,,59975200,57265,13,4
24,1618763956743705934,25,1618763956743165969,,59975400,57600,13,4
25,1618763957029593695,26,1618763957029125928,,59975600,57859,13,4
26,1618763957211204991,27,1618763957210524082,,59975800,58078,13,4
27,1618763957462826398,28,1618763957457990884,,59976000,57991,13,4
28,1618763957635092954,29,1618763957634076118,,59976200,58026,13,4
29,1618763957803311501,30,1618763957801254034,,59976400,58421,13,4
30,1618763957982835766,31,1618763957981861114,,59976600,58610,13,4
31,1618763958183332136,32,1618763958182706117,,59976800,58790,13,4
32,1618763958376483912,33,1618763958375870943,,59977000,59002,13,4
33,1618763958686243673,34,1618763958685863018,,59977200,58924,13,4
34,1618763958818858756,35,1618763958817771911,,59977400,59241,13,4
35,1618763959154027638,36,1618763959152857065,,59977600,59428,13,4
36,1618763959238916544,37,1618763959238431930,,59977800,59408,13,4
37,1618763959482323914,38,1618763959479171037,,59978000,59524,13,4
38,1618763959670803079,39,1618763959666088104,,59978200,59609,13,4
39,1618763959870617917,40,1618763959869940996,,59978400,59802,13,4
40,1618763959970116198,41,1618763959969742059,,59978600,59962,13,4
41,1618763960272647915,42,1618763960271152973,,59978800,60199,13,4
42,1618763960480518159,43,1618763960476758003,,59979000,60342,13,4
43,1618763960680907356,44,1618763960680536985,,59979200,60605,13,4
44,1618763960773074997,45,1618763960771789073,,59979400,60787,13,4
45,1618763960969373112,46,1618763960968761920,,59979600,60880,13,4
46,1618763961192202410,47,1618763961191587924,,59979800,61058,13,4
47,1618763961381894330,48,1618763961381150960,,59980000,61224,13,4
48,1618763961679475729,49,1618763961678812026,,59980200,61235,13,4
49,1618763961879302214,50,1618763961878209114,,59980400,61761,13,4
50,1618763962074761670,51,1618763962072804927,,59980600,61632,13,4
51,1618763962192360161,52,1618763962191787004,,59980800,62233,13,4
52,1618763962336532076,53,1618763962335864067,,59981000,61844,13,4
53,1618763962583530891,54,1618763962579178094,,59981200,62416,13,4
54,1618763962730154300,55,1618763962729662895,,59981400,62420,13,4
55,1618763962992180237,56,1618763962978900909,,59981600,63138,13,4
56,1618763963206709062,57,1618763963201634883,,59981800,63357,13,4
57,1618763963377384575,58,1618763963375818967,,59982000,63130,13,4
58,1618763963580953744,59,1618763963579550027,,59982200,0,0,0
59,1618763963781451202,60,1618763963780896902,,59982400,0,0,0
60,1618763963989017049,61,1618763963985970020,,59982600,0,0,0
61,1618763964179375141,62,1618763964176543951,,59982800,0,0,0
62,1618763964377231433,63,1618763964376144886,,59983000,64173,13,4
63,1618763964580180736,64,1618763964579607963,,59983200,64664,13,4
64,1618763964741475572,65,1618763964740637063,,59983400,0,0,0
65,1618763964940194651,66,1618763964938980102,,59983600,0,0,0
66,1618763965207468806,67,1618763965206223964,,59983800,0,0,0
67,1618763965376793959,68,1618763965372481107,,59984000,0,0,0
68,1618763965597699657,69,1618763965595458030,,59984200,65269,13,4
69,1618763965784493153,70,1618763965780925989,,59984400,65049,13,4
70,1618763965980434805,71,1618763965979594945,,59984600,65036,13,4
71,1618763966186135071,72,1618763966185657978,,59984800,65713,13,4
72,1618763966380333098,73,1618763966379774093,,59985000,65821,13,4
73,1618763966584885381,74,1618763966581161975,,59985200,66003,13,4
74,1618763966779696714,75,1618763966779306888,,59985400,66202,13,4
75,1618763966974435052,76,1618763966973757028,,59985600,66416,13,4
76,1618763967193757676,77,1618763967193315029,,59985800,66632,13,4
77,1618763967377127253,78,1618763967376385927,,59986000,66534,13,4
78,1618763967589499605,79,1618763967583406925,,59986200,66698,13,4
79,1618763967781864244,80,1618763967781387090,,59986400,66925,13,4
80,1618763967975285791,81,1618763967973970890,,59986600,66731,13,4
81,1618763968179300259,82,1618763968177308082,,59986800,67181,13,4
82,1618763968335781678,83,1618763968335407972,,59987000,67308,13,4
83,1618763968584588505,84,1618763968579919099,,59987200,67386,13,4
84,1618763968788744451,85,1618763968784807920,,59987400,67417,13,4
85,1618763968975476696,86,1618763968974874019,,59987600,67695,13,4
86,1618763969191804572,87,1618763969191409111,,59987800,67772,13,4
87,1618763969378752378,88,1618763969378206014,,59988000,68112,13,4
88,1618763969583072714,89,1618763969582600116,,59988200,67874,13,4
89,1618763969779089025,90,1618763969778506040,,59988400,68305,13,4
90,1618763969945334787,91,1618763969944752931,,59988600,68108,13,4
91,1618763970178983383,92,1618763970177041053,,59988800,68346,13,4
92,1618763970378813229,93,1618763970377729892,,59989000,68268,13,4
93,1618763970582091602,94,1618763970580379009,,59989200,67913,13,4
94,1618763970871065154,95,1618763970870471000,,59989400,68110,13,4
95,1618763971105235084,96,1618763971104698896,,59989600,68179,13,4
96,1618763971188785823,97,1618763971188123941,,59989800,67920,13,4
97,1618763971478942753,98,1618763971466301918,,59990000,67847,13,4
98,1618763971795877756,99,1618763971795279979,,59990200,67729,13,4
99,1618763971888179066,100,1618763971886276006,,59990400,67607,13,4
100,1618763972067446809,101,1618763972066915988,,59990600,67123,13,4
101,1618763972188796015,102,1618763972179940938,,59990800,0,0,0
102,1618763972380606680,103,1618763972380189895,,59991000,0,0,0
103,1618763972581398613,104,1618763972580727100,,59991200,0,0,0
104,1618763972778952781,105,1618763972778410911,,59991400,0,0,0
105,1618763972987688149,106,1618763972980552911,,59991600,66448,13,4
106,1618763973196616517,107,1618763973195509910,,59991800,66371,13,4
107,1618763973377870006,108,1618763973376607894,,59992000,66233,13,4
108,1618763973583175440,109,1618763973582488059,,59992200,66199,13,4
109,1618763973777014060,110,1618763973776164054,,59992400,66101,13,4
110,1618763973980903307,111,1618763973980129003,,59992600,66041,13,4
111,1618763974179664660,112,1618763974178836107,,59992800,66082,13,4
112,1618763974338698026,113,1618763974338193893,,59993000,66238,13,4
113,1618763974586316835,114,1618763974585675954,,59993200,66216,13,4
114,1618763974792434270,115,1618763974788615942,,59993400,66295,13,4
115,1618763974941562295,116,1618763974941114902,,59993600,66746,13,4
116,1618763975173562183,117,1618763975173029899,,59993800,66711,13,4
117,1618763975377868215,118,1618763975376766920,,59994000,67082,13,4
118,1618763975540256087,119,1618763975539752960,,59994200,67179,13,4
119,1618763975776967691,120,1618763975776077985,,59994400,67386,13,4
120,1618763975987143663,121,1618763975983272075,,59994600,67798,13,4
121,1618763976180901288,122,1618763976178726911,,59994800,68007,13,4
122,1618763976378007341,123,1618763976377583026,,59995000,68394,13,4
123,1618763976576549709,124,1618763976575788021,,59995200,68705,13,4
124,1618763976779612297,125,1618763976778923988,,59995400,68998,13,4
125,1618763977117986976,126,1618763977117580890,,59995600,69310,13,4
126,1618763977283886323,127,1618763977283540010,,59995800,69542,13,4
127,1618763977468082975,128,1618763977466825962,,59996000,69756,13,4
128,1618763977676193037,129,1618763977675404071,,59996200,69856,13,4
129,1618763977867904049,130,1618763977866705894,,59996400,70235,13,4
130,1618763978064388604,131,1618763978063790082,,59996600,70395,13,4
131,1618763978138150711,132,1618763978137624025,,59996800,70554,13,4
132,1618763978383620503,133,1618763978381592035,,59997000,71271,13,4
133,1618763978580468689,134,1618763978579799890,,59997200,71151,13,4
134,1618763978782031438,135,1618763978775970935,,59997400,0,0,0
135,1618763978958430134,136,1618763978957556009,,59997600,0,0,0
136,1618763979219285429,137,1618763979219012975,,59997800,0,0,0
137,1618763979390466948,138,1618763979386099100,,59998000,0,0,0
138,1618763979585651000,139,1618763979585125923,,59998200,0,0,0
139,1618763979777936308,140,1618763979777399063,,59998400,0,0,0
140,1618763979979875394,141,1618763979977754116,,59998600,0,0,0
141,1618763980139395883,142,1618763980138067960,,59998800,0,0,0
142,1618763980338391967,143,1618763980338021039,,59999000,0,0,0
143,1618763980582725487,144,1618763980579466104,,59999200,0,0,0
144,1618763980745502432,145,1618763980744936943,,59999400,72486,13,4
145,1618763980955660995,146,1618763980955204010,,59999600,72739,13,4
146,1618763981169749290,147,1618763981168646097,,59999800,72989,13,4
147,1618763981383530148,148,1618763981382953882,,60000000,72833,13,4
148,1618763981582557720,149,1618763981582088947,,60000200,73121,13,4
149,1618763981776239855,150,1618763981775315046,,60000400,72946,13,4
150,1618763981982265638,151,1618763981981618881,,60000600,0,0,0
151,1618763982181504003,152,1618763982181015014,,60000800,0,0,0
152,1618763982335991867,153,1618763982335499048,,60001000,0,0,0
153,1618763982580545205,154,1618763982577279090,,60001200,0,0,0
154,1618763982737890852,155,1618763982737473011,,60001400,0,0,0
155,1618763982988079272,156,1618763982985495090,,60001600,0,0,0
156,1618763983204866911,157,1618763983204566955,,60001800,0,0,0
157,1618763983349393017,158,1618763983349008083,,60002000,0,0,0
158,1618763983580201335,159,1618763983579531908,,60002200,0,0,0
159,1618763983739019139,160,1618763983738565921,,60002400,0,0,0
160,1618763984003788902,161,1618763984003319978,,60002600,72870,13,4
161,1618763984178951354,162,1618763984174900054,,60002800,73092,13,4
162,1618763984348067506,163,1618763984347260951,,60003000,72881,13,4
163,1618763984553577620,164,1618763984553000926,,60003200,73022,13,4
164,1618763984776933372,165,1618763984776262998,,60003400,72676,13,4
165,1618763984981734625,166,1618763984980310916,,60003600,72621,13,4
166,1618763985196377663,167,1618763985195111036,,60003800,72788,13,4
167,1618763985378313228,168,1618763985377774953,,60004000,72877,13,4
168,1618763985545517909,169,1618763985544984102,,60004200,72934,13,4
169,1618763985776512411,170,1618763985775916099,,60004400,73194,13,4
170,1618763985937387069,171,1618763985936724901,,60004600,73239,13,4
171,1618763986178673967,172,1618763986176955938,,60004800,73298,13,4
172,1618763986376837087,173,1618763986376408100,,60005000,73441,13,4
173,1618763986586602802,174,1618763986576692104,,60005200,73254,13,4
174,1618763986785519522,175,1618763986784652948,,60005400,73411,13,4
175,1618763986979847475,176,1618763986977880001,,60005600,73519,13,4
176,1618763987193834869,177,1618763987193182945,,60005800,73570,13,4
177,1618763987411952420,178,1618763987411161899,,60006000,73909,13,4
178,1618763987588195077,179,1618763987586755990,,60006200,73775,13,4
179,1618763987778775994,180,1618763987776209115,,60006400,74224,13,4
180,1618763987943378359,181,1618763987942666053,,60006600,0,0,0
181,1618763988142425836,182,1618763988140475034,,60006800,0,0,0
182,1618763988338866933,183,1618763988338411092,,60007000,0,0,0
183,1618763988655194487,184,1618763988653631925,,60007200,0,0,0
184,1618763988823848316,185,1618763988820555925,,60007400,0,0,0
185,1618763988998354869,186,1618763988993052005,,60007600,0,0,0
186,1618763989216872116,187,1618763989216528892,,60007800,0,0,0
187,1618763989381778686,188,1618763989381361961,,60008000,0,0,0
188,1618763989564975744,189,1618763989557137012,,60008200,74380,13,4
189,1618763989778621076,190,1618763989776640892,,60008400,73968,13,4
190,1618763989978845082,191,1618763989977823019,,60008600,74407,13,4
191,1618763990196514678,192,1618763990192826032,,60008800,73909,13,4
192,1618763990380532378,193,1618763990379966020,,60009000,0,0,0
193,1618763990579613169,194,1618763990579087972,,60009200,0,0,0
194,1618763990780336588,195,1618763990776941061,,60009400,0,0,0
195,1618763990983235201,196,1618763990978785037,,60009600,0,0,0
196,1618763991165717573,197,1618763991164794921,,60009800,0,0,0
197,1618763991339724873,198,1618763991339056015,,60010000,73552,13,4
198,1618763991586088174,199,1618763991585560083,,60010200,73905,13,4
199,1618763991734957117,200,1618763991733769893,,60010400,73761,13,4
200,1618763991983509405,201,1618763991977653980,,60010600,73428,13,4
201,1618763992182120544,202,1618763992179811000,,60010800,73546,13,4
202,1618763992376574422,203,1618763992376195907,,60011000,73712,13,4
203,1618763992586700792,204,1618763992579524040,,60011200,74020,13,4
204,1618763992784117097,205,1618763992783714056,,60011400,74126,13,4
205,1618763992979699023,206,1618763992978838920,,60011600,74416,13,4
206,1618763993163793494,207,1618763993163306951,,60011800,74724,13,4
207,1618763993338748225,208,1618763993338273048,,60012000,74726,13,4
208,1618763993579047274,209,1618763993578500032,,60012200,74908,13,4
209,1618763993776824362,210,1618763993775726079,,60012400,75311,13,4
210,1618763993991549868,211,1618763993990961074,,60012600,0,0,0
211,1618763994181906487,212,1618763994180978059,,60012800,0,0,0
212,1618763994344925939,213,1618763994341228008,,60013000,0,0,0
213,1618763994576159618,214,1618763994575469970,,60013200,0,0,0
0,1618763994776721686,215,1618763994775846004,,60013400,0,0,0
1,1618763994982446049,216,1618763994978219985,,60013600,77823,13,4
2,1618763995194741277,217,1618763995193830966,,60013800,78046,13,4
3,1618763995343929721,218,1618763995343301057,,60014000,78633,13,4
4,1618763995580542793,219,1618763995578556060,,60014200,79159,13,4
5,1618763995782324528,220,1618763995781327962,,60014400,79120,13,4
6,1618763995978903870,221,1618763995978256940,,60014600,79253,13,4
7,1618763996139583896,222,1618763996138809919,,60014800,0,0,0
8,1618763996396899332,223,1618763996396377086,,60015000,0,0,0
9,1618763996585315936,224,1618763996584403038,,60015200,0,0,0
10,1618763996739915612,225,1618763996739032983,,60015400,0,0,0
11,1618763996941315572,226,1618763996940692901,,60015600,0,0,0
12,1618763997174189895,227,1618763997172954082,,60015800,0,0,0
13,1618763997343541290,228,1618763997340636014,,60016000,82415,13,4
14,1618763997586544931,229,1618763997585232019,,60016200,82990,13,4
15,1618763997776760041,230,1618763997776158094,,60016400,83413,13,4
16,1618763997978788634,231,1618763997976958990,,60016600,83929,13,4
17,1618763998181721745,232,1618763998181145906,,60016800,84843,13,4
18,1618763998378509320,233,1618763998376717090,,60017000,0,0,0
19,1618763998579795195,234,1618763998575968980,,60017200,0,0,0
20,1618763998786383785,235,1618763998785881042,,60017400,0,0,0
21,1618763998979901945,236,1618763998979271888,,60017600,86096,13,4
22,1618763999165020651,237,1618763999163729906,,60017800,86291,13,4
23,1618763999377953249,238,1618763999375857114,,60018000,86131,13,4
24,1618763999543300509,239,1618763999542496919,,60018200,86598,13,4
25,1618763999778391693,240,1618763999777585029,,60018400,87326,13,4
26,1618763999987587561,241,1618763999982443094,,60018600,0,0,0
27,1618764000180673542,242,1618764000179783105,,60018800,0,0,0
28,1618764000377694343,243,1618764000376768112,,60019000,0,0,0
29,1618764000578805778,244,1618764000578325986,,60019200,0,0,0
30,1618764000777924074,245,1618764000776571989,,60019400,0,0,0
31,1618764000979291296,246,1618764000978889942,,60019600,0,0,0
32,1618764001194785441,247,1618764001194293022,,60019800,0,0,0
33,1618764001370608273,248,1618764001370290994,,60020000,89842,13,4
34,1618764001674344455,249,1618764001665251970,,60020200,89705,13,4
35,1618764001780492741,250,1618764001778300046,,60020400,89995,13,4
36,1618764001980753837,251,1618764001975863933,,60020600,90471,13,4
37,1618764002270411450,252,1618764002269938945,,60020800,91041,13,4
38,1618764002380918702,253,1618764002380423069,,60021000,91532,13,4
39,1618764002670868039,254,1618764002669775962,,60021200,91729,13,4
40,1618764002737379765,255,1618764002736918926,,60021400,91708,13,4
41,1618764003116720403,256,1618764003116206884,,60021600,92102,13,4
42,1618764003201664288,257,1618764003201224088,,60021800,0,0,0
43,1618764003353502986,258,1618764003352827072,,60022000,0,0,0
44,1618764003585213581,259,1618764003584777116,,60022200,0,0,0
45,1618764003779323541,260,1618764003776283025,,60022400,0,0,0
46,1618764003982021634,261,1618764003981502056,,60022600,0,0,0
47,1618764004180866863,262,1618764004180115938,,60022800,0,0,0
48,1618764004386503670,263,1618764004377938032,,60023000,0,0,0
49,1618764004537845324,264,1618764004537262916,,60023200,0,0,0
50,1618764004784700741,265,1618764004784181118,,60023400,0,0,0
51,1618764004980889604,266,1618764004978612899,,60023600,0,0,0
52,1618764005164810564,267,1618764005163489103,,60023800,0,0,0
53,1618764005325989586,268,1618764005325409889,,60024000,0,0,0
54,1618764005582780361,269,1618764005576153993,,60024200,95696,13,4
55,1618764005738417105,270,1618764005737924098,,60024400,95955,13,4
56,1618764005981037434,271,1618764005979727983,,60024600,96222,13,4
57,1618764006137375487,272,1618764006136784076,,60024800,96676,13,4
58,1618764006379530389,273,1618764006375799894,,60025000,96988,13,4
59,1618764006578680783,274,1618764006577804088,,60025200,97320,13,4
60,1618764006777134507,275,1618764006775820970,,60025400,97040,13,4
61,1618764006978406013,276,1618764006977871894,,60025600,97682,13,4
62,1618764007193479373,277,1618764007192918062,,60025800,97989,13,4
63,1618764007377179332,278,1618764007376749992,,60026000,0,0,0
64,1618764007578827269,279,1618764007576936006,,60026200,0,0,0
65,1618764007738130822,280,1618764007737684965,,60026400,0,0,0
66,1618764007978424398,281,1618764007976454019,,60026600,0,0,0
67,1618764008187143701,282,1618764008180207014,,60026800,0,0,0
68,1618764008385409322,283,1618764008380932092,,60027000,0,0,0
69,1618764008584356283,284,1618764008577306032,,60027200,0,0,0
70,1618764008777892555,285,1618764008777430057,,60027400,0,0,0
71,1618764008958433407,286,1618764008957916021,,60027600,0,0,0
72,1618764009217831266,287,1618764009217366933,,60027800,0,0,0
73,1618764009384809954,288,1618764009384428024,,60028000,0,0,0
74,1618764009569689578,289,1618764009567982912,,60028200,0,0,0
75,1618764009782613792,290,1618764009777441978,,60028400,0,0,0
76,1618764009979659010,291,1618764009975399971,,60028600,0,0,0
77,1618764010179325105,292,1618764010178658008,,60028800,0,0,0
78,1618764010377462272,293,1618764010376913070,,60029000,102253,13,4
79,1618764010578360131,294,1618764010577155113,,60029200,0,0,0
80,1618764010784519199,295,1618764010783543109,,60029400,0,0,0
81,1618764010979500204,296,1618764010978913068,,60029600,0,0,0
82,1618764011194471383,297,1618764011193839073,,60029800,0,0,0
83,1618764011347902595,298,1618764011347322940,,60030000,102321,13,4
84,1618764011581210697,299,1618764011579500913,,60030200,103575,13,4
85,1618764011792494267,300,1618764011787884950,,60030400,103461,13,4
86,1618764011976317464,301,1618764011974998950,,60030600,103966,13,4
87,1618764012179259855,302,1618764012177856922,,60030800,103552,13,4
88,1618764012338254914,303,1618764012337537050,,60031000,103611,13,4
89,1618764012580061994,304,1618764012577836990,,60031200,103143,13,4
90,1618764012777627681,305,1618764012776489973,,60031400,103017,13,4
91,1618764012976309544,306,1618764012973695039,,60031600,103575,13,4
92,1618764013183025500,307,1618764013182595014,,60031800,103992,13,4
93,1618764013376203997,308,1618764013375104904,,60032000,104028,13,4
94,1618764013572107183,309,1618764013569071054,,60032200,104473,13,4
95,1618764013774100895,310,1618764013770625114,,60032400,104238,13,4
96,1618764014075104164,311,1618764014073324918,,60032600,104152,13,4
97,1618764014157362977,312,1618764014156621932,,60032800,103672,13,4
98,1618764014381786133,313,1618764014381268978,,60033000,0,0,0
99,1618764014584708300,314,1618764014575782060,,60033200,0,0,0
100,1618764014776695867,315,1618764014775528907,,60033400,0,0,0
101,1618764014928384159,316,1618764014927922010,,60033600,0,0,0
102,1618764015168560387,317,1618764015165908098,,60033800,0,0,0
103,1618764015380465135,318,1618764015376507997,,60034000,0,0,0
104,1618764015543513739,319,1618764015542896032,,60034200,103108,13,4
105,1618764015781892196,320,1618764015781048059,,60034400,103176,13,4
106,1618764015937290690,321,1618764015936876058,,60034600,0,0,0
107,1618764016181700661,322,1618764016181057929,,60034800,0,0,0
108,1618764016337071058,323,1618764016336683988,,60035000,0,0,0
109,1618764016578075800,324,1618764016575880050,,60035200,0,0,0
110,1618764016785329155,325,1618764016783582925,,60035400,0,0,0
111,1618764016979700886,326,1618764016979093074,,60035600,0,0,0
112,1618764017168424446,327,1618764017168039083,,60035800,0,0,0
113,1618764017416815095,328,1618764017416357994,,60036000,100517,13,4
114,1618764017591558265,329,1618764017590981006,,60036200,100087,13,4
115,1618764017777121118,330,1618764017775145053,,60036400,99288,13,4
116,1618764017982801159,331,1618764017982158899,,60036600,99502,13,4
117,1618764018180262138,332,1618764018178276062,,60036800,0,0,0
118,1618764018383565280,333,1618764018376749992,,60037000,0,0,0
119,1618764018649831553,334,1618764018648895978,,60037200,0,0,0
120,1618764018815930588,335,1618764018815581083,,60037400,0,0,0
121,1618764018989999619,336,1618764018989526987,,60037600,0,0,0
122,1618764019202825909,337,1618764019202461957,,60037800,97733,13,4
123,1618764019378071020,338,1618764019375688076,,60038000,98058,13,4
124,1618764019580001465,339,1618764019575858116,,60038200,97896,13,4
125,1618764019777404906,340,1618764019775901079,,60038400,97500,13,4
126,1618764019941597686,341,1618764019937799930,,60038600,97524,13,4
127,1618764020181618995,342,1618764020181127071,,60038800,97679,13,4
128,1618764020383031787,343,1618764020381413936,,60039000,97800,13,4
129,1618764020578322916,344,1618764020576710939,,60039200,97547,13,4
130,1618764020777697895,345,1618764020776401996,,60039400,97984,13,4
131,1618764020979407947,346,1618764020978774070,,60039600,97782,13,4
132,1618764021197153834,347,1618764021195683002,,60039800,97351,13,4
133,1618764021377159815,348,1618764021376627922,,60040000,97843,13,4
134,1618764021584616922,349,1618764021583029985,,60040200,97343,13,4
135,1618764021776668748,350,1618764021775732040,,60040400,97096,13,4
136,1618764021939740074,351,1618764021938864946,,60040600,97150,13,4
137,1618764022179490907,352,1618764022177074909,,60040800,97136,13,4
138,1618764022338340905,353,1618764022337600946,,60041000,97486,13,4
139,1618764022576454807,354,1618764022575699090,,60041200,97704,13,4
140,1618764022745994689,355,1618764022743657112,,60041400,97213,13,4
141,1618764022978766417,356,1618764022977960109,,60041600,97316,13,4
142,1618764023194779367,357,1618764023193048000,,60041800,96801,13,4
143,1618764023378808780,358,1618764023377641916,,60042000,96526,13,4
144,1618764023578150606,359,1618764023575627088,,60042200,96855,13,4
145,1618764023780389064,360,1618764023775623083,,60042400,96763,13,4
146,1618764023973814099,361,1618764023973117113,,60042600,96700,13,4
147,1618764024184790840,362,1618764024180704116,,60042800,96789,13,4
148,1618764024379822183,363,1618764024378179073,,60043000,96884,13,4
149,1618764024578558031,364,1618764024577696084,,60043200,96894,13,4
150,1618764024780223441,365,1618764024777069091,,60043400,96511,13,4
151,1618764024980961933,366,1618764024980473995,,60043600,96239,13,4
152,1618764025198767982,367,1618764025198298931,,60043800,95906,13,4
153,1618764025378263670,368,1618764025377621889,,60044000,96147,13,4
154,1618764025578996049,369,1618764025578146934,,60044200,96558,13,4
155,1618764025776589514,370,1618764025775944948,,60044400,96532,13,4
156,1618764025938020355,371,1618764025937513113,,60044600,96431,13,4
157,1618764026191430157,372,1618764026190895080,,60044800,96070,13,4
158,1618764026382669342,373,1618764026380002975,,60045000,95636,13,4
159,1618764026540433726,374,1618764026539670944,,60045200,96301,13,4
160,1618764026778108762,375,1618764026776314973,,60045400,95725,13,4
161,1618764026982803834,376,1618764026982172012,,60045600,95581,13,4
162,1618764027198016719,377,1618764027197550058,,60045800,95632,13,4
163,1618764027381071435,378,1618764027380237102,,60046000,95853,13,4
164,1618764027547406320,379,1618764027544800996,,60046200,95687,13,4
165,1618764027776746577,380,1618764027776106119,,60046400,95513,13,4
166,1618764027977907166,381,1618764027977292060,,60046600,95871,13,4
167,1618764028189294005,382,1618764028186054944,,60046800,95657,13,4
168,1618764028377178650,383,1618764028376159906,,60047000,95267,13,4
169,1618764028581274273,384,1618764028576152086,,60047200,95476,13,4
170,1618764028783538588,385,1618764028782943010,,60047400,95122,13,4
171,1618764028979258791,386,1618764028978612899,,60047600,95177,13,4
172,1618764029194458620,387,1618764029193679094,,60047800,0,0,0
173,1618764029379230400,388,1618764029378700971,,60048000,0,0,0
174,1618764029579400419,389,1618764029575989961,,60048200,0,0,0
175,1618764029737188165,390,1618764029736210107,,60048400,0,0,0
176,1618764029986397760,391,1618764029984664916,,60048600,95415,13,4
177,1618764030181197893,392,1618764030178580999,,60048800,94939,13,4
178,1618764030377402180,393,1618764030376619100,,60049000,0,0,0
179,1618764030577647659,394,1618764030575269937,,60049200,0,0,0
180,1618764030781029972,395,1618764030776928901,,60049400,0,0,0
181,1618764030980886731,396,1618764030978291034,,60049600,0,0,0
182,1618764031194190609,397,1618764031193423986,,60049800,94027,13,4
183,1618764031384432728,398,1618764031380714893,,60050000,94313,13,4
184,1618764031569346050,399,1618764031568917036,,60050200,93968,13,4
185,1618764031759457732,400,1618764031759038925,,60050400,93692,13,4
186,1618764031977217155,401,1618764031976639032,,60050600,93469,13,4
187,1618764032185259118,402,1618764032179246902,,60050800,92153,13,4
188,1618764032494025590,403,1618764032493505001,,60051000,92238,13,4
189,1618764032574209885,404,1618764032569905996,,60051200,91973,13,4
190,1618764032782135331,405,1618764032778538942,,60051400,91847,13,4
191,1618764032984956853,406,1618764032979255914,,60051600,91276,13,4
192,1618764033194259829,407,1618764033193834066,,60051800,90851,13,4
193,1618764033378336764,408,1618764033377902030,,60052000,90647,13,4
194,1618764033583310951,409,1618764033582892894,,60052200,90245,13,4
195,1618764033780244421,410,1618764033779695987,,60052400,89688,13,4
196,1618764033978097384,411,1618764033975857019,,60052600,89376,13,4
197,1618764034180274816,412,1618764034178677082,,60052800,88790,13,4
198,1618764034471609331,413,1618764034471041917,,60053000,88523,13,4
199,1618764034565874338,414,1618764034561537027,,60053200,88142,13,4
200,1618764034785005787,415,1618764034784337043,,60053400,88113,13,4
201,1618764034979598615,416,1618764034979131937,,60053600,0,0,0
202,1618764035197978608,417,1618764035192766904,,60053800,0,0,0
203,1618764035382092280,418,1618764035380264043,,60054000,0,0,0
204,1618764035579397637,419,1618764035576806068,,60054200,0,0,0
205,1618764035777590967,420,1618764035775948047,,60054400,87910,13,4
206,1618764035983053463,421,1618764035980550050,,60054600,86946,13,4
207,1618764036185955884,422,1618764036177970886,,60054800,87184,13,4
208,1618764036385461493,423,1618764036377759933,,60055000,87165,13,4
209,1618764036540534821,424,1618764036538979053,,60055200,86921,13,4
210,1618764036766163148,425,1618764036765697956,,60055400,87010,13,4
211,1618764037116323693,426,1618764037115871906,,60055600,87282,13,4
212,1618764037284986387,427,1618764037284250974,,60055800,87373,13,4
213,1618764037479266882,428,1618764037478888034,,60056000,87373,13,4
214,1618764037667655900,429,1618764037666723012,,60056200,87729,13,4
215,1618764037879397025,430,1618764037869199991,,60056400,87689,13,4
216,1618764038067314855,431,1618764038066669940,,60056600,87789,13,4
217,1618764038271209542,432,1618764038268680095,,60056800,87882,13,4
218,1618764038479947406,433,1618764038479135036,,60057000,88256,13,4
0,1618764038664840631,434,1618764038663703918,,60057200,88445,13,4
1,1618764038868966560,435,1618764038865304946,,60057400,88930,13,4
2,1618764039136588504,436,1618764039135780096,,60057600,89039,13,4
3,1618764039306019710,437,1618764039305681943,,60057800,89263,13,4
4,1618764039478603655,438,1618764039478043079,,60058000,89420,13,4
5,1618764039778608962,439,1618764039776283979,,60058200,89561,13,4
6,1618764039864199594,440,1618764039863204956,,60058400,89824,13,4
7,1618764040067306120,441,1618764040065957069,,60058600,90120,13,4
8,1618764040270864857,442,1618764040270459890,,60058800,90631,13,4
9,1618764040455746753,443,1618764040455291032,,60059000,91035,13,4
10,1618764040572635261,444,1618764040568306922,,60059200,91674,13,4
11,1618764040783100621,445,1618764040781763076,,60059400,92382,13,4
12,1618764040981422533,446,1618764040979983091,,60059600,92472,13,4
13,1618764041163542874,447,1618764041159574031,,60059800,92918,13,4
14,1618764041385926234,448,1618764041383431911,,60060000,92830,13,4
15,1618764041580480660,449,1618764041575449943,,60060200,93290,13,4
16,1618764041712564233,450,1618764041712193965,,60060400,0,0,0
17,1618764041985276245,451,1618764041984807014,,60060600,0,0,0
18,1618764042178259118,452,1618764042175859928,,60060800,0,0,0
19,1618764042372852074,453,1618764042370471000,,60061000,0,0,0
20,1618764042576126863,454,1618764042574939966,,60061200,95026,13,4
21,1618764042742779233,455,1618764042742482900,,60061400,94700,13,4
22,1618764042972779454,456,1618764042972152948,,60061600,95025,13,4
23,1618764043273813028,457,1618764043270837068,,60061800,95413,13,4
24,1618764043462073753,458,1618764043461587905,,60062000,95884,13,4
25,1618764043665681580,459,1618764043664850950,,60062200,96545,13,4
26,1618764043868112142,460,1618764043866240024,,60062400,96754,13,4
27,1618764044094561430,461,1618764044093928098,,60062600,97176,13,4
28,1618764044261648122,462,1618764044261127948,,60062800,97710,13,4
29,1618764044478691548,463,1618764044476821899,,60063000,98089,13,4
30,1618764044665074883,464,1618764044663992881,,60063200,98467,13,4
31,1618764044866550237,465,1618764044865803956,,60063400,98703,13,4
32,1618764045117743275,466,1618764045117084980,,60063600,98834,13,4
33,1618764045283755490,467,1618764045280224084,,60063800,99506,13,4
34,1618764045473183463,468,1618764045472441911,,60064000,99991,13,4
35,1618764045683010045,469,1618764045675097942,,60064200,100468,13,4
36,1618764045874057957,470,1618764045871434926,,60064400,100785,13,4
37,1618764046068599295,471,1618764046067734003,,60064600,101234,13,4
38,1618764046171666365,472,1618764046169363975,,60064800,101439,13,4
39,1618764046473569224,473,1618764046473134040,,60065000,101638,13,4
40,1618764046579341846,474,1618764046578805923,,60065200,101771,13,4
41,1618764046773844142,475,1618764046773153066,,60065400,102224,13,4
42,1618764047115283845,476,1618764047114820003,,60065600,102438,13,4
43,1618764047279652920,477,1618764047278762102,,60065800,102812,13,4
44,1618764047469370825,478,1618764047467461109,,60066000,103005,13,4
45,1618764047663162852,479,1618764047662599086,,60066200,103332,13,4
46,1618764047869727154,480,1618764047869123935,,60066400,103455,13,4
47,1618764048069605354,481,1618764048069175958,,60066600,103836,13,4
48,1618764048267332168,482,1618764048266206979,,60066800,103469,13,4
49,1618764048467725525,483,1618764048467318058,,60067000,103803,13,4
50,1618764048736848205,484,1618764048735037088,,60067200,104226,13,4
51,1618764048899612829,485,1618764048899029016,,60067400,104486,13,4
52,1618764049121046101,486,1618764049119462013,,60067600,104462,13,4
53,1618764049289238535,487,1618764049288722038,,60067800,104655,13,4
54,1618764049469610964,488,1618764049463361024,,60068000,104953,13,4
55,1618764049666225060,489,1618764049663708925,,60068200,105071,13,4
56,1618764049868462526,490,1618764049867542982,,60068400,105342,13,4
57,1618764049966267137,491,1618764049965698003,,60068600,105301,13,4
58,1618764050266320479,492,1618764050264988899,,60068800,105404,13,4
59,1618764050474537617,493,1618764050473906040,,60069000,105374,13,4
60,1618764050665264940,494,1618764050664736986,,60069200,105715,13,4
61,1618764050867462949,495,1618764050866223096,,60069400,105737,13,4
62,1618764051117354940,496,1618764051117033004,,60069600,106089,13,4
63,1618764051280184303,497,1618764051279726982,,60069800,106279,13,4
64,1618764051463969482,498,1618764051463630914,,60070000,106417,13,4
65,1618764051581907890,499,1618764051581486940,,60070200,106788,13,4
66,1618764051865341597,500,1618764051863867044,,60070400,106927,13,4
67,1618764052084179401,501,1618764052080382108,,60070600,107081,13,4
68,1618764052271896519,502,1618764052270193099,,60070800,107095,13,4
69,1618764052478132167,503,1618764052477056980,,60071000,107040,13,4
70,1618764052678006623,504,1618764052677098035,,60071200,107110,13,4
71,1618764052874746164,505,1618764052867193937,,60071400,107282,13,4
72,1618764053116701762,506,1618764053116106033,,60071600,107537,13,4
73,1618764053280391001,507,1618764053279010057,,60071800,108057,13,4
74,1618764053369985254,508,1618764053369400024,,60072000,0,0,0
75,1618764053581262680,509,1618764053577977895,,60072200,0,0,0
76,1618764053738084689,510,1618764053737004995,,60072400,0,0,0
77,1618764053941275795,511,1618764053940778970,,60072600,0,0,0
78,1618764054180623092,512,1618764054177356004,,60072800,0,0,0
79,1618764054360748598,513,1618764054359344005,,60073000,107808,13,4
80,1618764054586083601,514,1618764054578224897,,60073200,108428,13,4
81,1618764054770103605,515,1618764054763151884,,60073400,109194,13,4
82,1618764054972960745,516,1618764054971760034,,60073600,109612,13,4
83,1618764055184173976,517,1618764055183218002,,60073800,109814,13,4
84,1618764055472719351,518,1618764055472409963,,60074000,109603,13,4
85,1618764055585440358,519,1618764055583338022,,60074200,109657,13,4
86,1618764055866149408,520,1618764055865252971,,60074400,109281,13,4
87,1618764055961568639,521,1618764055960272073,,60074600,109482,13,4
88,1618764056178305204,522,1618764056177417039,,60074800,110000,13,4
89,1618764056480448489,523,1618764056480130910,,60075000,110288,13,4
90,1618764056672081610,524,1618764056671551942,,60075200,110307,13,4
91,1618764056777470984,525,1618764056776845932,,60075400,0,0,0
92,1618764056979237230,526,1618764056978823900,,60075600,0,0,0
93,1618764057163370744,527,1618764057162373065,,60075800,0,0,0
94,1618764057384582854,528,1618764057383061885,,60076000,0,0,0
95,1618764057585365572,529,1618764057584105968,,60076200,110720,13,4
96,1618764057778888243,530,1618764057778243064,,60076400,111174,13,4
97,1618764057976375784,531,1618764057975797891,,60076600,111143,13,4
98,1618764058179064948,532,1618764058176173925,,60076800,111298,13,4
99,1618764058350854268,533,1618764058350313901,,60077000,111479,13,4
100,1618764058580260864,534,1618764058579643964,,60077200,111296,13,4
101,1618764058780587850,535,1618764058779436111,,60077400,111258,13,4
102,1618764058979473817,536,1618764058977632045,,60077600,111895,13,4
103,1618764059175951395,537,1618764059175673007,,60077800,111106,13,4
104,1618764059377064238,538,1618764059375859022,,60078000,110513,13,4
105,1618764059581287067,539,1618764059580653905,,60078200,110799,13,4
106,1618764059777457465,540,1618764059775784969,,60078400,111515,13,4
107,1618764059943254055,541,1618764059942869901,,60078600,111757,13,4
108,1618764060179805716,542,1618764060175462007,,60078800,111834,13,4
109,1618764060385624035,543,1618764060384607076,,60079000,111927,13,4
110,1618764060579613446,544,1618764060578840970,,60079200,111718,13,4
111,1618764060767534092,545,1618764060766956090,,60079400,111886,13,4
112,1618764060973605606,546,1618764060970417022,,60079600,111500,13,4
113,1618764061272714620,547,1618764061270175933,,60079800,111265,13,4
114,1618764061470122573,548,1618764061468147039,,60080000,111759,13,4
115,1618764061675238238,549,1618764061673393011,,60080200,112120,13,4
116,1618764061866502224,550,1618764061863214015,,60080400,112537,13,4
117,1618764062072524391,551,1618764062067513942,,60080600,112583,13,4
118,1618764062274903399,552,1618764062273238897,,60080800,112490,13,4
119,1618764062476944025,553,1618764062473712921,,60081000,112453,13,4
120,1618764062672520606,554,1618764062668826103,,60081200,112205,13,4
121,1618764062866017132,555,1618764062864768028,,60081400,112090,13,4
122,1618764063116951087,556,1618764063116450071,,60081600,112094,13,4
123,1618764063283752455,557,1618764063283325910,,60081800,112419,13,4
124,1618764063458332739,558,1618764063457524061,,60082000,112618,13,4
125,1618764063582930176,559,1618764063582443952,,60082200,112701,13,4
126,1618764063869109789,560,1618764063868596076,,60082400,112962,13,4
127,1618764064071558432,561,1618764064069760084,,60082600,112975,13,4
128,1618764064267467474,562,1618764064265923023,,60082800,112884,13,4
129,1618764064469514436,563,1618764064467968940,,60083000,113068,13,4
130,1618764064663687407,564,1618764064662431955,,60083200,112963,13,4
131,1618764064844890526,565,1618764064839282035,,60083400,112593,13,4
132,1618764065115253737,566,1618764065114518880,,60083600,112538,13,4
133,1618764065280219157,567,1618764065279282093,,60083800,112745,13,4
134,1618764065479382671,568,1618764065474147081,,60084000,112835,13,4
135,1618764065668581387,569,1618764065667457103,,60084200,113087,13,4
136,1618764065872203966,570,1618764065868932962,,60084400,113115,13,4
137,1618764066075057714,571,1618764066071878910,,60084600,113239,13,4
138,1618764066267115684,572,1618764066265777111,,60084800,113092,13,4
139,1618764066465146831,573,1618764066464711904,,60085000,112907,13,4
140,1618764066673137689,574,1618764066672528982,,60085200,112920,13,4
141,1618764066880824501,575,1618764066879292964,,60085400,112986,13,4
142,1618764067125288939,576,1618764067124771118,,60085600,113064,13,4
143,1618764067283305942,577,1618764067282594919,,60085800,113157,13,4
144,1618764067463687875,578,1618764067462362051,,60086000,113110,13,4
145,1618764067665607088,579,1618764067664402961,,60086200,113234,13,4
146,1618764067870071750,580,1618764067869359016,,60086400,113103,13,4
147,1618764068064723397,581,1618764068063918113,,60086600,113048,13,4
148,1618764068267269355,582,1618764068265130996,,60086800,112976,13,4
149,1618764068499054674,583,1618764068498635053,,60087000,112906,13,4
150,1618764068665631233,584,1618764068660974025,,60087200,112965,13,4
151,1618764068872974319,585,1618764068872509002,,60087400,113004,13,4
152,1618764069172329648,586,1618764069170741081,,60087600,112726,13,4
153,1618764069311263777,587,1618764069310827970,,60087800,112854,13,4
154,1618764069487046671,588,1618764069486401081,,60088000,112815,13,4
155,1618764069670786408,589,1618764069665482997,,60088200,112915,13,4
156,1618764069870997773,590,1618764069866985082,,60088400,112860,13,4
157,1618764070073857025,591,1618764070071751117,,60088600,112617,13,4
158,1618764070270657689,592,1618764070269967079,,60088800,112417,13,4
159,1618764070476178651,593,1618764070471724033,,60089000,112049,13,4
160,1618764070670964351,594,1618764070663605928,,60089200,111830,13,4
161,1618764070875097736,595,1618764070874545097,,60089400,111867,13,4
162,1618764071119068137,596,1618764071118417024,,60089600,111792,13,4
163,1618764071283667110,597,1618764071283255100,,60089800,111795,13,4
164,1618764071464981114,598,1618764071463803052,,60090000,111808,13,4
165,1618764071671153144,599,1618764071664887905,,60090200,111608,13,4
166,1618764071878040147,600,1618764071876866102,,60090400,111682,13,4
167,1618764072059525870,601,1618764072058186054,,60090600,111286,13,4
168,1618764072269068599,602,1618764072267353057,,60090800,111208,13,4
169,1618764072473315141,603,1618764072472697019,,60091000,111050,13,4
170,1618764072666437636,604,1618764072665889978,,60091200,111363,13,4
171,1618764072876150452,605,1618764072875013113,,60091400,111341,13,4
172,1618764073120715727,606,1618764073116863012,,60091600,111709,13,4
173,1618764073281290404,607,1618764073280667066,,60091800,111622,13,4
174,1618764073459312271,608,1618764073458534955,,60092000,111621,13,4
175,1618764073666137352,609,1618764073665420055,,60092200,111704,13,4
176,1618764073873919208,610,1618764073873224973,,60092400,111631,13,4
177,1618764074091996597,611,1618764074091626882,,60092600,111660,13,4
178,1618764074264950605,612,1618764074264143943,,60092800,111970,13,4
179,1618764074475571235,613,1618764074473468065,,60093000,111800,13,4
180,1618764074666053844,614,1618764074663804054,,60093200,112016,13,4
181,1618764074887169631,615,1618764074881093025,,60093400,112036,13,4
182,1618764075125708159,616,1618764075125365972,,60093600,112057,13,4
183,1618764075284315362,617,1618764075283691883,,60093800,112063,13,4
184,1618764075461951357,618,1618764075461201906,,60094000,112041,13,4
185,1618764075692558579,619,1618764075685436964,,60094200,111991,13,4
186,1618764075879255911,620,1618764075878202915,,60094400,111789,13,4
187,1618764076065246173,621,1618764076064560890,,60094600,111915,13,4
188,1618764076265731246,622,1618764076264624118,,60094800,112125,13,4
189,1618764076464926313,623,1618764076464390039,,60095000,111896,13,4
190,1618764076683315235,624,1618764076679923057,,60095200,111811,13,4
191,1618764076878503896,625,1618764076877662897,,60095400,111939,13,4
192,1618764077116433790,626,1618764077115165948,,60095600,111776,13,4
193,1618764077284904987,627,1618764077281912088,,60095800,111601,13,4
194,1618764077541746580,628,1618764077541008949,,60096000,111600,13,4
195,1618764077713982574,629,1618764077713282108,,60096200,111753,13,4
196,1618764077890886283,630,1618764077890106916,,60096400,111545,13,4
197,1618764078072922941,631,1618764078072132110,,60096600,111478,13,4
198,1618764078267175242,632,1618764078266716957,,60096800,111455,13,4
199,1618764078467714302,633,1618764078467345952,,60097000,111231,13,4
200,1618764078732396700,634,1618764078731821060,,60097200,111339,13,4
201,1618764078903371970,635,1618764078902842044,,60097400,111120,13,4
202,1618764079121200229,636,1618764079120842933,,60097600,111181,13,4
203,1618764079296196434,637,1618764079290729999,,60097800,110821,13,4
204,1618764079468198434,638,1618764079466964960,,60098000,111018,13,4
205,1618764079683451513,639,1618764079676911115,,60098200,111112,13,4
206,1618764079872627412,640,1618764079871638059,,60098400,110953,13,4
207,1618764080076462960,641,1618764080076073884,,60098600,111118,13,4
208,1618764080177112170,642,1618764080174921989,,60098800,110789,13,4
209,1618764080473378122,643,1618764080471164941,,60099000,110738,13,4
210,1618764080665970835,644,1618764080665077924,,60099200,110324,13,4
211,1618764080877837693,645,1618764080876948118,,60099400,110330,13,4
212,1618764081114644116,646,1618764081113985061,,60099600,110302,13,4
213,1618764081279849706,647,1618764081279314994,,60099800,110322,13,4
214,1618764081473274934,648,1618764081466881036,,60100000,110251,13,4
215,1618764081672782846,649,1618764081672319889,,60100200,110328,13,4
216,1618764081876172968,650,1618764081875036954,,60100400,110322,13,4
217,1618764082071300762,651,1618764082063663959,,60100600,110143,13,4
218,1618764082265779954,652,1618764082265110015,,60100800,110065,13,4
219,1618764082466120541,653,1618764082465637922,,60101000,109911,13,4
220,1618764082666556780,654,1618764082666070938,,60101200,109658,13,4
221,1618764082900381863,655,1618764082896460056,,60101400,109583,13,4
0,1618764083120409349,656,1618764083118797063,,60101600,109304,13,4
1,1618764083283639913,657,1618764083283160924,,60101800,109343,13,4
2,1618764083466777448,658,1618764083459367990,,60102000,109401,13,4
3,1618764083666268528,659,1618764083665139913,,60102200,109512,13,4
4,1618764083871909623,660,1618764083871185064,,60102400,109376,13,4
5,1618764083979738555,661,1618764083978430032,,60102600,109451,13,4
6,1618764084266105664,662,1618764084265419960,,60102800,109312,13,4
7,1618764084470102243,663,1618764084469382047,,60103000,108898,13,4
8,1618764084669240060,664,1618764084666919946,,60103200,108575,13,4
9,1618764084873120698,665,1618764084870215892,,60103400,108555,13,4
10,1618764084996227193,666,1618764084989592075,,60103600,108579,13,4
11,1618764085259627555,667,1618764085258732080,,60103800,108611,13,4
12,1618764085464773654,668,1618764085464195013,,60104000,108652,13,4
13,1618764085665982501,669,1618764085665153980,,60104200,108592,13,4
14,1618764085872758747,670,1618764085871988058,,60104400,108460,13,4
15,1618764085974865105,671,1618764085974159955,,60104600,108379,13,4
16,1618764086264968625,672,1618764086262846946,,60104800,108138,13,4
17,1618764086481452923,673,1618764086478142023,,60105000,108101,13,4
18,1618764086667874372,674,1618764086667298078,,60105200,108172,13,4
19,1618764086871785155,675,1618764086871084928,,60105400,108084,13,4
20,1618764087127127965,676,1618764087126658916,,60105600,108148,13,4
21,1618764087295256685,677,1618764087294667959,,60105800,107807,13,4
22,1618764087467107575,678,1618764087465853929,,60106000,107543,13,4
23,1618764087679195691,679,1618764087677567005,,60106200,106987,13,4
24,1618764087878634704,680,1618764087878154039,,60106400,106736,13,4
25,1618764088070450233,681,1618764088067816019,,60106600,106322,13,4
26,1618764088279147103,682,1618764088271734952,,60106800,106280,13,4
27,1618764088465478788,683,1618764088464669942,,60107000,105902,13,4
28,1618764088669585547,684,1618764088666028022,,60107200,105500,13,4
29,1618764088877017917,685,1618764088874205112,,60107400,105131,13,4
30,1618764089129422717,686,1618764089128938913,,60107600,105078,13,4
31,1618764089213416994,687,1618764089213043928,,60107800,104715,13,4
32,1618764089473602246,688,1618764089471334934,,60108000,104650,13,4
33,1618764089674962555,689,1618764089668863058,,60108200,104383,13,4
34,1618764089876420789,690,1618764089875997066,,60108400,103921,13,4
35,1618764089976730400,691,1618764089975874900,,60108600,103481,13,4
36,1618764090275589836,692,1618764090274735927,,60108800,103260,13,4
37,1618764090468060976,693,1618764090465754032,,60109000,103275,13,4
38,1618764090675060144,694,1618764090674293994,,60109200,103363,13,4
39,1618764090875870542,695,1618764090875570058,,60109400,103422,13,4
40,1618764091134842303,696,1618764091133622884,,60109600,103352,13,4
41,1618764091281986886,697,1618764091280061960,,60109800,103554,13,4
42,1618764091479047785,698,1618764091474927902,,60110000,103446,13,4
43,1618764091669031013,699,1618764091667680978,,60110200,103613,13,4
44,1618764091871510569,700,1618764091870971918,,60110400,103475,13,4
45,1618764092069408239,701,1618764092068149089,,60110600,103779,13,4
46,1618764092267301876,702,1618764092266568899,,60110800,103921,13,4
47,1618764092481453149,703,1618764092480938911,,60111000,103982,13,4
48,1618764092664598141,704,1618764092664191007,,60111200,104124,13,4
49,1618764092872806543,705,1618764092871529102,,60111400,104336,13,4
50,1618764093128923850,706,1618764093127454996,,60111600,104678,13,4
51,1618764093297934494,707,1618764093296694993,,60111800,105058,13,4
52,1618764093473740013,708,1618764093469949960,,60112000,105517,13,4
53,1618764093669869449,709,1618764093668334007,,60112200,105916,13,4
54,1618764093884786898,710,1618764093884313106,,60112400,106489,13,4
55,1618764094071726224,711,1618764094071182012,,60112600,106832,13,4
56,1618764094266870979,712,1618764094266510963,,60112800,107114,13,4
57,1618764094466042141,713,1618764094465640068,,60113000,107566,13,4
58,1618764094676729270,714,1618764094663935899,,60113200,108056,13,4
59,1618764094876177276,715,1618764094875854015,,60113400,108841,13,4
60,1618764095130153502,716,1618764095129592895,,60113600,109652,13,4
61,1618764095296862962,717,1618764095294187068,,60113800,110265,13,4
62,1618764095470668238,718,1618764095470058917,,60114000,111048,13,4
63,1618764095671454859,719,1618764095668989896,,60114200,111629,13,4
64,1618764095878527598,720,1618764095875691890,,60114400,112266,13,4
65,1618764096077329145,721,1618764096075862884,,60114600,112959,13,4
66,1618764096282064507,722,1618764096280695915,,60114800,113879,13,4
67,1618764096464766921,723,1618764096464279890,,60115000,114401,13,4
68,1618764096576625204,724,1618764096575658082,,60115200,115289,13,4
69,1618764096879701935,725,1618764096879164934,,60115400,116059,13,4
70,1618764097122592580,726,1618764097122055053,,60115600,116834,13,4
71,1618764097289245750,727,1618764097288913011,,60115800,117736,13,4
72,1618764097471966756,728,1618764097471297025,,60116000,118511,13,4
73,1618764097672551993,729,1618764097670026063,,60116200,119286,13,4
74,1618764097876946349,730,1618764097876514911,,60116400,119616,13,4
75,1618764098071832725,731,1618764098070022106,,60116600,120536,13,4
76,1618764098268478279,732,1618764098267630100,,60116800,120955,13,4
77,1618764098475874647,733,1618764098473854064,,60117000,121935,13,4
78,1618764098672180602,734,1618764098670572996,,60117200,122370,13,4
79,1618764098888442779,735,1618764098879367113,,60117400,123180,13,4
80,1618764099164637081,736,1618764099163490056,,60117600,123569,13,4
81,1618764099302773737,737,1618764099302191019,,60117800,124008,13,4
82,1618764099477321572,738,1618764099475528001,,60118000,124193,13,4
83,1618764099674202271,739,1618764099673772096,,60118200,124713,13,4
84,1618764099875673209,740,1618764099875287055,,60118400,125069,13,4
85,1618764100077604326,741,1618764100073065996,,60118600,125605,13,4
86,1618764100279464880,742,1618764100278959989,,60118800,125852,13,4
87,1618764100461319770,743,1618764100459547042,,60119000,126255,13,4
88,1618764100576372715,744,1618764100574883937,,60119200,126156,13,4
89,1618764100884369523,745,1618764100882486104,,60119400,126572,13,4
90,1618764101133020503,746,1618764101131786108,,60119600,127197,13,4
91,1618764101293635662,747,1618764101292877912,,60119800,127709,13,4
92,1618764101472672387,748,1618764101472229957,,60120000,127656,13,4
93,1618764101669142989,749,1618764101667021036,,60120200,128438,13,4
94,1618764101878925121,750,1618764101873150110,,60120400,128464,13,4
95,1618764102079502869,751,1618764102076888084,,60120600,128460,13,4
96,1618764102275810937,752,1618764102273015022,,60120800,128611,13,4
97,1618764102485208764,753,1618764102482410907,,60121000,128641,13,4
98,1618764102663975750,754,1618764102662302017,,60121200,129114,13,4
99,1618764102874630526,755,1618764102873797893,,60121400,129502,13,4
100,1618764103133518220,756,1618764103132462024,,60121600,129849,13,4
101,1618764103223292705,757,1618764103222891092,,60121800,130452,13,4
102,1618764103476824912,758,1618764103476377964,,60122000,130787,13,4
103,1618764103676469502,759,1618764103666403055,,60122200,130926,13,4
104,1618764103767313952,760,1618764103766736984,,60122400,131033,13,4
105,1618764104028356583,761,1618764104027424097,,60122600,131386,13,4
106,1618764104171596076,762,1618764104171026945,,60122800,131508,13,4
107,1618764104474730985,763,1618764104468821048,,60123000,131982,13,4
108,1618764104664767784,764,1618764104664462089,,60123200,132363,13,4
109,1618764104774731909,765,1618764104771275997,,60123400,132488,13,4
110,1618764104991469562,766,1618764104990983963,,60123600,132667,13,4
111,1618764105258524827,767,1618764105257940053,,60123800,133032,13,4
112,1618764105472435770,768,1618764105466270923,,60124000,133119,13,4
113,1618764105579224435,769,1618764105575658082,,60124200,133266,13,4
114,1618764105874446023,770,1618764105873467922,,60124400,133417,13,4
115,1618764105966489403,771,1618764105966159105,,60124600,133876,13,4
116,1618764106274922837,772,1618764106274513006,,60124800,133987,13,4
117,1618764106466166854,773,1618764106465739011,,60125000,134415,13,4
118,1618764106667304914,774,1618764106666874885,,60125200,134564,13,4
119,1618764106879582477,775,1618764106877038955,,60125400,134752,13,4
120,1618764107129113782,776,1618764107128417015,,60125600,134972,13,4
121,1618764107289267322,777,1618764107288877010,,60125800,134911,13,4
122,1618764107514379179,778,1618764107513853073,,60126000,135177,13,4
123,1618764107690265277,779,1618764107689832925,,60126200,135341,13,4
124,1618764107866993202,780,1618764107866177082,,60126400,135565,13,4
125,1618764107988916736,781,1618764107988360881,,60126600,136051,13,4
126,1618764108268102042,782,1618764108267657041,,60126800,135951,13,4
127,1618764108475448872,783,1618764108474994897,,60127000,136372,13,4
128,1618764108730010946,784,1618764108729433059,,60127200,136295,13,4
129,1618764108912541833,785,1618764108911767959,,60127400,136379,13,4
130,1618764109130495984,786,1618764109130141019,,60127600,136464,13,4
131,1618764109295969841,787,1618764109295492887,,60127800,136545,13,4
132,1618764109473229564,788,1618764109471422910,,60128000,136632,13,4
133,1618764109668059970,789,1618764109664602994,,60128200,136737,13,4
134,1618764109775417139,790,1618764109771117925,,60128400,137055,13,4
135,1618764110068421963,791,1618764110067857027,,60128600,137579,13,4
136,1618764110170897040,792,1618764110170414924,,60128800,137621,13,4
137,1618764110472839260,793,1618764110472397089,,60129000,137688,13,4
138,1618764110666895106,794,1618764110666091918,,60129200,137743,13,4
139,1618764110876275557,795,1618764110875236988,,60129400,137567,13,4
140,1618764111124517208,796,1618764111123874902,,60129600,137713,13,4
141,1618764111260405003,797,1618764111257190942,,60129800,137701,13,4
142,1618764111466077972,798,1618764111464062929,,60130000,137932,13,4
143,1618764111675365363,799,1618764111674679994,,60130200,138145,13,4
144,1618764111850350655,800,1618764111849582910,,60130400,138280,13,4
145,1618764111975884644,801,1618764111975275993,,60130600,138424,13,4
146,1618764112274433186,802,1618764112269638061,,60130800,138598,13,4
147,1618764112468337154,803,1618764112467456102,,60131000,138453,13,4
148,1618764112676804991,804,1618764112670099973,,60131200,138478,13,4
149,1618764112856714360,805,1618764112854373931,,60131400,138634,13,4
150,1618764113124879944,806,1618764113124401092,,60131600,138576,13,4
151,1618764113211563068,807,1618764113207882881,,60131800,138690,13,4
152,1618764113472651750,808,1618764113472075939,,60132000,138846,13,4
153,1618764113665126281,809,1618764113664669036,,60132200,138872,13,4
154,1618764113850416003,810,1618764113849941968,,60132400,138961,13,4
155,1618764113979991887,811,1618764113979742050,,60132600,138802,13,4
156,1618764114271506185,812,1618764114270926952,,60132800,138554,13,4
157,1618764114469209639,813,1618764114466204881,,60133000,138629,13,4
158,1618764114668625515,814,1618764114664122104,,60133200,138497,13,4
159,1618764114852285953,815,1618764114851840972,,60133400,138480,13,4
160,1618764115130131747,816,1618764115129698038,,60133600,138350,13,4
161,1618764115297352780,817,1618764115296737909,,60133800,137966,13,4
162,1618764115475042954,818,1618764115472915887,,60134000,137761,13,4
163,1618764115665778085,819,1618764115665186882,,60134200,137545,13,4
164,1618764115853402623,820,1618764115851711034,,60134400,137427,13,4
165,1618764115976609251,821,1618764115976223945,,60134600,137299,13,4
166,1618764116181032472,822,1618764116180589914,,60134800,137183,13,4
167,1618764116375729976,823,1618764116375324010,,60135000,137282,13,4
168,1618764116681529701,824,1618764116676171064,,60135200,137160,13,4
169,1618764116760468087,825,1618764116759249925,,60135400,136927,13,4
170,1618764117135104754,826,1618764117134778976,,60135600,137246,13,4
171,1618764117277077026,827,1618764117275891065,,60135800,137354,13,4
172,1618764117486003186,828,1618764117485443115,,60136000,137523,13,4
173,1618764117675722531,829,1618764117667865037,,60136200,138044,13,4
174,1618764117850999132,830,1618764117850116968,,60136400,138286,13,4
175,1618764117974427529,831,1618764117972577095,,60136600,138520,13,4
176,1618764118264709680,832,1618764118264226913,,60136800,139108,13,4
177,1618764118467116945,833,1618764118466505050,,60137000,139359,13,4
178,1618764118654351195,834,1618764118653508901,,60137200,139682,13,4
179,1618764118871241974,835,1618764118869687080,,60137400,140265,13,4
180,1618764119139498217,836,1618764119133846998,,60137600,140558,13,4
181,1618764119295636902,837,1618764119295066118,,60137800,140895,13,4
182,1618764119474941127,838,1618764119474400043,,60138000,141489,13,4
183,1618764119675641057,839,1618764119673568010,,60138200,141974,13,4
184,1618764119866901778,840,1618764119865832090,,60138400,142730,13,4
185,1618764119983941685,841,1618764119981147050,,60138600,143200,13,4
186,1618764120166997009,842,1618764120166419982,,60138800,143588,13,4
187,1618764120474210456,843,1618764120472194910,,60139000,144145,13,4
188,1618764120666923206,844,1618764120665082931,,60139200,144775,13,4
189,1618764120873816610,845,1618764120865225076,,60139400,144962,13,4
190,1618764120989137085,846,1618764120988801002,,60139600,145208,13,4
191,1618764121261724197,847,1618764121260585069,,60139800,145703,13,4
192,1618764121469237402,848,1618764121467892885,,60140000,145668,13,4
193,1618764121667560305,849,1618764121666014909,,60140200,146106,13,4
194,1618764121869771338,850,1618764121869317054,,60140400,146512,13,4
195,1618764121977538379,851,1618764121975387096,,60140600,146647,13,4
196,1618764122270102449,852,1618764122264096975,,60140800,147237,13,4
197,1618764122472565109,853,1618764122471798896,,60141000,147537,13,4
198,1618764122667078573,854,1618764122665760040,,60141200,147339,13,4
199,1618764122868197337,855,1618764122866025924,,60141400,147533,13,4
200,1618764123125866068,856,1618764123124944925,,60141600,147450,13,4
201,1618764123291450521,857,1618764123290966033,,60141800,147399,13,4
202,1618764123478673891,858,1618764123476344108,,60142000,147248,13,4
203,1618764123672289078,859,1618764123668550968,,60142200,147344,13,4
204,1618764123866130003,860,1618764123865087032,,60142400,147494,13,4
205,1618764124081375882,861,1618764124074008941,,60142600,147504,13,4
206,1618764124169794119,862,1618764124167011022,,60142800,147756,13,4
207,1618764124372337261,863,1618764124371601104,,60143000,147620,13,4
208,1618764124651266172,864,1618764124650816917,,60143200,147436,13,4
209,1618764124880077415,865,1618764124877310037,,60143400,147488,13,4
210,1618764124988114100,866,1618764124987548112,,60143600,147439,13,4
211,1618764125254292145,867,1618764125253871917,,60143800,147232,13,4
212,1618764125464810531,868,1618764125463273048,,60144000,147053,13,4
213,1618764125668114857,869,1618764125667565107,,60144200,146713,13,4
214,1618764125866578918,870,1618764125864712953,,60144400,146448,13,4
215,1618764126081297095,871,1618764126077063083,,60144600,146554,13,4
216,1618764126266132173,872,1618764126265503883,,60144800,146396,13,4
217,1618764126466615966,873,1618764126465065002,,60145000,146680,13,4
218,1618764126650750568,874,1618764126650082111,,60145200,146677,13,4
0,1618764126865136603,875,1618764126862768888,,60145400,146423,13,4
1,1618764127122260031,876,1618764127121856927,,60145600,146236,13,4
2,1618764127208195989,877,1618764127207690954,,60145800,145927,13,4
3,1618764127470993189,878,1618764127464301109,,60146000,145810,13,4
4,1618764127666878167,879,1618764127663798093,,60146200,145396,13,4
5,1618764127876192727,880,1618764127873289108,,60146400,144992,13,4
