,%time,field.header.seq,field.header.stamp,field.header.frame_id,field.tow,field.heading,field.n_sats,field.flags
0,1618773943649297890,18,1618773943647802114,,69962400,174313,13,4
1,1618773943861117578,19,1618773943860578060,,69962600,174398,13,4
2,1618773944036072150,20,1618773944035696029,,69962800,174337,13,4
3,1618773944238095975,21,1618773944237392902,,69963000,174251,13,4
4,1618773944455839845,22,1618773944455336093,,69963200,174101,13,4
5,1618773944626161872,23,1618773944625845909,,69963400,174099,13,4
6,1618773944838650676,24,1618773944838157892,,69963600,173891,13,4
7,1618773945044184151,25,1618773945043595075,,69963800,173584,13,4
8,1618773945228791380,26,1618773945227404117,,69964000,173129,13,4
9,1618773945442698387,27,1618773945442101001,,69964200,173468,13,4
10,1618773945636817435,28,1618773945636490106,,69964400,173327,13,4
11,1618773945833777338,29,1618773945833409070,,69964600,173265,13,4
12,1618773946038968111,30,1618773946038682937,,69964800,173018,13,4
13,1618773946252034091,31,1618773946251681089,,69965000,173094,13,4
14,1618773946466976597,32,1618773946465781927,,69965200,172856,13,4
15,1618773946643667497,33,1618773946643083095,,69965400,173068,13,4
16,1618773946838683158,34,1618773946837060928,,69965600,172776,13,4
17,1618773947037838064,35,1618773947037617921,,69965800,172606,13,4
18,1618773947297320630,36,1618773947296192884,,69966000,172614,13,4
19,1618773947464859757,37,1618773947464562892,,69966200,172539,13,4
20,1618773947645283964,38,1618773947641741037,,69966400,172114,13,4
21,1618773947836141853,39,1618773947835673093,,69966600,171858,13,4
22,1618773948079843059,40,1618773948079309940,,69966800,171535,13,4
23,1618773948237934625,41,1618773948235832929,,69967000,171456,13,4
24,1618773948584098620,42,1618773948583291053,,69967200,171354,13,4
25,1618773948755166502,43,1618773948753995895,,69967400,171005,13,4
26,1618773948923536959,44,1618773948923141002,,69967600,171039,13,4
27,1618773949103547229,45,1618773949102736949,,69967800,170666,13,4
28,1618773949273092007,46,1618773949272322893,,69968000,170714,13,4
29,1618773949440618142,47,1618773949440262079,,69968200,170322,13,4
30,1618773949638542948,48,1618773949635070085,,69968400,170372,13,4
31,1618773949838085294,49,1618773949837707996,,69968600,170168,13,4
32,1618773950046106009,50,1618773950043669939,,69968800,170262,13,4
33,1618773950239479810,51,1618773950238641023,,69969000,169791,13,4
34,1618773950449386139,52,1618773950449054002,,69969200,169532,13,4
35,1618773950625472853,53,1618773950624963045,,69969400,169312,13,4
36,1618773950835132772,54,1618773950834223031,,69969600,168895,13,4
37,1618773951039851109,55,1618773951039557933,,69969800,168983,13,4
38,1618773951228809654,56,1618773951226771116,,69970000,168510,13,4
39,1618773951440116842,57,1618773951438601970,,69970200,167947,13,4
40,1618773951634523806,58,1618773951634037017,,69970400,167349,13,4
41,1618773951836037562,59,1618773951835468053,,69970600,166513,13,4
42,1618773952038604225,60,1618773952038264989,,69970800,165912,13,4
43,1618773952241572281,61,1618773952241364002,,69971000,165531,13,4
44,1618773952457561935,62,1618773952457256078,,69971200,164820,13,4
45,1618773952633552774,63,1618773952633155107,,69971400,164206,13,4
46,1618773952848314248,64,1618773952847939014,,69971600,163721,13,4
47,1618773953035575828,65,1618773953035110950,,69971800,162653,13,4
48,1618773953233948973,66,1618773953233598947,,69972000,161979,13,4
49,1618773953443198026,67,1618773953441076993,,69972200,161134,13,4
50,1618773953633059746,68,1618773953632802963,,69972400,160440,13,4
51,1618773953833258631,69,1618773953832936048,,69972600,159886,13,4
52,1618773954037778111,70,1618773954036571979,,69972800,158881,13,4
53,1618773954234672923,71,1618773954234241962,,69973000,158045,13,4
54,1618773954458489238,72,1618773954458029985,,69973200,156812,13,4
55,1618773954664427754,73,1618773954664078950,,69973400,155780,13,4
56,1618773954810725966,74,1618773954810256004,,69973600,155190,13,4
57,1618773955038398090,75,1618773955037574052,,69973800,154191,13,4
58,1618773955233413687,76,1618773955233021020,,69974000,153412,13,4
59,1618773955442441867,77,1618773955441930055,,69974200,152347,13,4
60,1618773955633963368,78,1618773955633680105,,69974400,151683,13,4
61,1618773955841157808,79,1618773955840377092,,69974600,150556,13,4
62,1618773956035410142,80,1618773956035024881,,69974800,149815,13,4
63,1618773956236333569,81,1618773956235589027,,69975000,148889,13,4
64,1618773956451879940,82,1618773956451261043,,69975200,147636,13,4
65,1618773956626022350,83,1618773956624789953,,69975400,146369,13,4
66,1618773956837184283,84,1618773956834198951,,69975600,145181,13,4
67,1618773957042815426,85,1618773957037908077,,69975800,144293,13,4
68,1618773957227042543,86,1618773957226144075,,69976000,143068,13,4
69,1618773957441864884,87,1618773957441314935,,69976200,142313,13,4
70,1618773957639614739,88,1618773957636480093,,69976400,141371,13,4
71,1618773957833096929,89,1618773957832828998,,69976600,140071,13,4
72,1618773958047878373,90,1618773958047358989,,69976800,139003,13,4
73,1618773958239683213,91,1618773958239254951,,69977000,138113,13,4
74,1618773958456809234,92,1618773958455161094,,69977200,137074,13,4
75,1618773958633642507,93,1618773958633284091,,69977400,136756,13,4
76,1618773958835464180,94,1618773958834984064,,69977600,135641,13,4
77,1618773959049061862,95,1618773959048013925,,69977800,134940,13,4
78,1618773959225773531,96,1618773959225328922,,69978000,133791,13,4
79,1618773959444151156,97,1618773959443635940,,69978200,132531,13,4
80,1618773959627350134,98,1618773959626451015,,69978400,131064,13,4
81,1618773959838434816,99,1618773959838048934,,69978600,130265,13,4
82,1618773960035447264,100,1618773960035012960,,69978800,129591,13,4
83,1618773960234381713,101,1618773960234011888,,69979000,128686,13,4
84,1618773960451057027,102,1618773960450649976,,69979200,127845,13,4
85,1618773960673974233,103,1618773960673589944,,69979400,126599,13,4
86,1618773960834612145,104,1618773960834306001,,69979600,125552,13,4
87,1618773961037764657,105,1618773961036500930,,69979800,124290,13,4
88,1618773961235418508,106,1618773961234905004,,69980000,122640,13,4
89,1618773961436475573,107,1618773961436073064,,69980200,121569,13,4
90,1618773961633216490,108,1618773961632878065,,69980400,120864,13,4
91,1618773961846623925,109,1618773961845995903,,69980600,120655,13,4
92,1618773961938340155,110,1618773961937845945,,69980800,119089,13,4
93,1618773962237408175,111,1618773962236373901,,69981000,118294,13,4
94,1618773962449909332,112,1618773962449163913,,69981200,116960,13,4
95,1618773962623936281,113,1618773962623549938,,69981400,115862,13,4
96,1618773962836208500,114,1618773962835833072,,69981600,114594,13,4
97,1618773963043146961,115,1618773963042804002,,69981800,113613,13,4
98,1618773963239104998,116,1618773963238634109,,69982000,112660,13,4
99,1618773963438365924,117,1618773963438025951,,69982200,111894,13,4
100,1618773963638720304,118,1618773963633405923,,69982400,111021,13,4
101,1618773963834400249,119,1618773963833960056,,69982600,110410,13,4
102,1618773964036255683,120,1618773964035218000,,69982800,109367,13,4
103,1618773964244411891,121,1618773964244055986,,69983000,108086,13,4
104,1618773964462383803,122,1618773964461893081,,69983200,107262,13,4
105,1618773964635921452,123,1618773964635488033,,69983400,106041,13,4
106,1618773964836346170,124,1618773964835433006,,69983600,104829,13,4
107,1618773965038811198,125,1618773965036026000,,69983800,103865,13,4
108,1618773965235141666,126,1618773965234637022,,69984000,102628,13,4
109,1618773965440944912,127,1618773965439517974,,69984200,102136,13,4
110,1618773965532599444,128,1618773965532061100,,69984400,101292,13,4
111,1618773965833367983,129,1618773965832981109,,69984600,100057,13,4
112,1618773966037224396,130,1618773966036880016,,69984800,99463,13,4
113,1618773966235445983,131,1618773966235081911,,69985000,98237,13,4
114,1618773966449497604,132,1618773966449083089,,69985200,97579,13,4
115,1618773966628353074,133,1618773966627865076,,69985400,96494,13,4
116,1618773966835702368,134,1618773966834068059,,69985600,95810,13,4
117,1618773967034760854,135,1618773967034368038,,69985800,94736,13,4
118,1618773967236265297,136,1618773967235481977,,69986000,94147,13,4
119,1618773967440505790,137,1618773967440035104,,69986200,93483,13,4
120,1618773967633732610,138,1618773967633449077,,69986400,92306,13,4
121,1618773967840472983,139,1618773967839946985,,69986600,91424,13,4
122,1618773968034776263,140,1618773968034228086,,69986800,90907,13,4
123,1618773968234120648,141,1618773968233573913,,69987000,89787,13,4
124,1618773968453156925,142,1618773968452517986,,69987200,88617,13,4
125,1618773968626557640,143,1618773968626053094,,69987400,88139,13,4
126,1618773968841203878,144,1618773968840629100,,69987600,87203,13,4
127,1618773969044565422,145,1618773969044126033,,69987800,86573,13,4
128,1618773969133032877,146,1618773969132711887,,69988000,85820,13,4
129,1618773969436912746,147,1618773969436361074,,69988200,84994,13,4
130,1618773969633123657,148,1618773969632870912,,69988400,84370,13,4
131,1618773969833378320,149,1618773969832933902,,69988600,83064,13,4
132,1618773970088665576,150,1618773970086926937,,69988800,82863,13,4
133,1618773970256958271,151,1618773970255284070,,69989000,81847,13,4
134,1618773970477931460,152,1618773970469049930,,69989200,81089,13,4
135,1618773970642697543,153,1618773970642374992,,69989400,80239,13,4
136,1618773970833952537,154,1618773970833364963,,69989600,79548,13,4
137,1618773971079851018,155,1618773971078900098,,69989800,78619,13,4
138,1618773971237828275,156,1618773971237375974,,69990000,78194,13,4
139,1618773971440722601,157,1618773971440185070,,69990200,77354,13,4
140,1618773971563855721,158,1618773971563472986,,69990400,76886,13,4
141,1618773971841387902,159,1618773971840763092,,69990600,76298,13,4
142,1618773972079956607,160,1618773972078457117,,69990800,75506,13,4
143,1618773972238514688,161,1618773972237680912,,69991000,75165,13,4
144,1618773972455696264,162,1618773972453459024,,69991200,74181,13,4
145,1618773972668376628,163,1618773972667644977,,69991400,73606,13,4
146,1618773972838436084,164,1618773972838063001,,69991600,73071,13,4
147,1618773973075520407,165,1618773973075090885,,69991800,72306,13,4
148,1618773973239953036,166,1618773973237188100,,69992000,71898,13,4
149,1618773973440144785,167,1618773973439224004,,69992200,71156,13,4
150,1618773973645008024,168,1618773973644160032,,69992400,70849,13,4
151,1618773973868380097,169,1618773973868014097,,69992600,70254,13,4
152,1618773974079482476,170,1618773974079060077,,69992800,69582,13,4
153,1618773974235064081,171,1618773974234693050,,69993000,68611,13,4
154,1618773974452838193,172,1618773974452508926,,69993200,68010,13,4
155,1618773974670052250,173,1618773974669280052,,69993400,67632,13,4
156,1618773974840218558,174,1618773974839520931,,69993600,66818,13,4
157,1618773975086315384,175,1618773975082736968,,69993800,66150,13,4
158,1618773975235250057,176,1618773975234678030,,69994000,65612,13,4
159,1618773975439174218,177,1618773975438630104,,69994200,65315,13,4
160,1618773975640672421,178,1618773975639998912,,69994400,64796,13,4
161,1618773975845058456,179,1618773975844654083,,69994600,64526,13,4
162,1618773976075941465,180,1618773976075423955,,69994800,63756,13,4
163,1618773976240319949,181,1618773976239798069,,69995000,63014,13,4
164,1618773976413653461,182,1618773976412992954,,69995200,62133,13,4
165,1618773976636525801,183,1618773976636142969,,69995400,61773,13,4
166,1618773976834071775,184,1618773976833681106,,69995600,61091,13,4
167,1618773977079743943,185,1618773977079263925,,69995800,60624,13,4
168,1618773977301517134,186,1618773977300939083,,69996000,60637,13,4
169,1618773977470068047,187,1618773977469297885,,69996200,60234,13,4
170,1618773977647279000,188,1618773977646533012,,69996400,60150,13,4
171,1618773977841850419,189,1618773977839538097,,69996600,59701,13,4
172,1618773978038425090,190,1618773978037864923,,69996800,59206,13,4
173,1618773978319068024,191,1618773978318106889,,69997000,58971,13,4
174,1618773978580341289,192,1618773978579751968,,69997200,58429,13,4
175,1618773978794044671,193,1618773978790730953,,69997400,57826,13,4
176,1618773978924481168,194,1618773978924053907,,69997600,57373,13,4
177,1618773979096694761,195,1618773979095508098,,69997800,57451,13,4
178,1618773979275118981,196,1618773979274311065,,69998000,57316,13,4
179,1618773979441889724,197,1618773979440288066,,69998200,56940,13,4
180,1618773979637628679,198,1618773979637021064,,69998400,57211,13,4
181,1618773979853022660,199,1618773979852029085,,69998600,56724,13,4
182,1618773980076582421,200,1618773980075439929,,69998800,56296,13,4
183,1618773980239355014,201,1618773980238980054,,69999000,56016,13,4
184,1618773980456151837,202,1618773980454438924,,69999200,55666,13,4
185,1618773980661248270,203,1618773980660947084,,69999400,55368,13,4
186,1618773980844889378,204,1618773980844089031,,69999600,55543,13,4
187,1618773981044550929,205,1618773981044152975,,69999800,55401,13,4
188,1618773981168634457,206,1618773981167326927,,70000000,55488,13,4
189,1618773981432808931,207,1618773981432389974,,70000200,55703,13,4
190,1618773981637286458,208,1618773981636770963,,70000400,55278,13,4
191,1618773981839655225,209,1618773981839265108,,70000600,54835,13,4
192,1618773982039814941,210,1618773982039269924,,70000800,54671,13,4
193,1618773982245032914,211,1618773982244626998,,70001000,54465,13,4
194,1618773982463513616,212,1618773982463152885,,70001200,54475,13,4
195,1618773982644634428,213,1618773982637712955,,70001400,54682,13,4
196,1618773982747380972,214,1618773982745918989,,70001600,55018,13,4
197,1618773983039101711,215,1618773983038609027,,70001800,55140,13,4
198,1618773983237018229,216,1618773983236112117,,70002000,54845,13,4
199,1618773983448539537,217,1618773983443434953,,70002200,54846,13,4
200,1618773983576943981,218,1618773983570524930,,70002400,54506,13,4
201,1618773983844243704,219,1618773983843521118,,70002600,54469,13,4
202,1618773984082446442,220,1618773984075858116,,70002800,54594,13,4
203,1618773984236845919,221,1618773984236313104,,70003000,54349,13,4
204,1618773984454993390,222,1618773984453197956,,70003200,54501,13,4
205,1618773984662800464,223,1618773984662415981,,70003400,54617,13,4
206,1618773984839982104,224,1618773984839633941,,70003600,54737,13,4
207,1618773985046469698,225,1618773985045698881,,70003800,54624,13,4
208,1618773985239931439,226,1618773985234517097,,70004000,54802,13,4
209,1618773985437833365,227,1618773985437486886,,70004200,54688,13,4
210,1618773985638127614,228,1618773985637331008,,70004400,54770,13,4
211,1618773985841815764,229,1618773985841464042,,70004600,54621,13,4
212,1618773986079125728,230,1618773986078244924,,70004800,54907,13,4
213,1618773986237944429,231,1618773986237358093,,70005000,55013,13,4
214,1618773986455276570,232,1618773986454024076,,70005200,55267,13,4
215,1618773986662236633,233,1618773986661823987,,70005400,55348,13,4
216,1618773986842942035,234,1618773986841434955,,70005600,55146,13,4
217,1618773987082061067,235,1618773987081646919,,70005800,55089,13,4
218,1618773987237610479,236,1618773987237204074,,70006000,54963,13,4
219,1618773987442458294,237,1618773987441730022,,70006200,55252,13,4
220,1618773987637819378,238,1618773987637358903,,70006400,55639,13,4
221,1618773987839945479,239,1618773987839570999,,70006600,55631,13,4
222,1618773988077758184,240,1618773988077341079,,70006800,55676,13,4
223,1618773988246544371,241,1618773988246018886,,70007000,55870,13,4
224,1618773988462621740,242,1618773988461575984,,70007200,55663,13,4
225,1618773988637525878,243,1618773988636857032,,70007400,55376,13,4
226,1618773988838675650,244,1618773988837912082,,70007600,55652,13,4
227,1618773989080953533,245,1618773989080338954,,70007800,55608,13,4
228,1618773989178483349,246,1618773989172538042,,70008000,55956,13,4
229,1618773989345471189,247,1618773989343389034,,70008200,56051,13,4
230,1618773989564913498,248,1618773989563760995,,70008400,56211,13,4
231,1618773989760789484,249,1618773989760294914,,70008600,56571,13,4
232,1618773990085175613,250,1618773990084270954,,70008800,56255,13,4
233,1618773990171655593,251,1618773990170761108,,70009000,56285,13,4
234,1618773990387810822,252,1618773990386811017,,70009200,55973,13,4
235,1618773990563063614,253,1618773990562654018,,70009400,56137,13,4
236,1618773990836429830,254,1618773990836096048,,70009600,56405,13,4
237,1618773991095608543,255,1618773991094652891,,70009800,56414,13,4
238,1618773991179212244,256,1618773991178541898,,70010000,56531,13,4
239,1618773991432313969,257,1618773991431888103,,70010200,56967,13,4
240,1618773991632886246,258,1618773991632190942,,70010400,56796,13,4
0,1618773991846730818,259,1618773991840794086,,70010600,57105,13,4
1,1618773992045070650,260,1618773992043622970,,70010800,56761,13,4
2,1618773992237525373,261,1618773992236897945,,70011000,56567,13,4
3,1618773992453693402,262,1618773992453376054,,70011200,56447,13,4
4,1618773992626006264,263,1618773992625535964,,70011400,56309,13,4
5,1618773992839752528,264,1618773992839324951,,70011600,56104,13,4
6,1618773993057320104,265,1618773993054498910,,70011800,56102,13,4
7,1618773993266939381,266,1618773993264810085,,70012000,55766,13,4
8,1618773993441793532,267,1618773993437367916,,70012200,55846,13,4
9,1618773993640091922,268,1618773993639367103,,70012400,55424,13,4
10,1618773993841846360,269,1618773993841448068,,70012600,55054,13,4
11,1618773994050801513,270,1618773994050189971,,70012800,54464,13,4
12,1618773994233693630,271,1618773994233345031,,70013000,54072,13,4
13,1618773994484659651,272,1618773994483999967,,70013200,54053,13,4
14,1618773994620699868,273,1618773994620265007,,70013400,53612,13,4
15,1618773994840485103,274,1618773994839993953,,70013600,53537,13,4
16,1618773995041594842,275,1618773995041244983,,70013800,53060,13,4
17,1618773995235790566,276,1618773995235086917,,70014000,52436,13,4
18,1618773995441583188,277,1618773995440102100,,70014200,51603,13,4
19,1618773995600383007,278,1618773995599833965,,70014400,51196,13,4
20,1618773995747681261,279,1618773995747107982,,70014600,50183,13,4
21,1618773996098990718,280,1618773996095855951,,70014800,49806,13,4
22,1618773996145386631,281,1618773996144808053,,70015000,49220,13,4
23,1618773996446906305,282,1618773996446022987,,70015200,49024,13,4
24,1618773996663841854,283,1618773996663300991,,70015400,48814,13,4
25,1618773996837020480,284,1618773996836225032,,70015600,48330,13,4
26,1618773997083911419,285,1618773997080492973,,70015800,47611,13,4
27,1618773997238992300,286,1618773997238261938,,70016000,46680,13,4
28,1618773997442529980,287,1618773997438246965,,70016200,45774,13,4
29,1618773997637784339,288,1618773997634538888,,70016400,44870,13,4
30,1618773997838093085,289,1618773997837816953,,70016600,44077,13,4
31,1618773997937881971,290,1618773997937459945,,70016800,43943,13,4
32,1618773998237706791,291,1618773998237231016,,70017000,43573,13,4
33,1618773998453140965,292,1618773998451888084,,70017200,43374,13,4
34,1618773998625067091,293,1618773998624737977,,70017400,43132,13,4
35,1618773998849705488,294,1618773998840219974,,70017600,43237,13,4
36,1618773999097248038,295,1618773999094944953,,70017800,42618,13,4
37,1618773999225730629,296,1618773999225369930,,70018000,42264,13,4
38,1618773999435754050,297,1618773999434968948,,70018200,41386,13,4
39,1618773999638641655,298,1618773999638047933,,70018400,41384,13,4
40,1618773999839223052,299,1618773999838677883,,70018600,41124,13,4
41,1618774000086384306,300,1618774000084177970,,70018800,41510,13,4
42,1618774000247062220,301,1618774000245666027,,70019000,41837,13,4
43,1618774000458266651,302,1618774000457726001,,70019200,42480,13,4
44,1618774000645390240,303,1618774000644763946,,70019400,42525,13,4
45,1618774000847809922,304,1618774000847253084,,70019600,42868,13,4
46,1618774001044332014,305,1618774001044006109,,70019800,42833,13,4
47,1618774001223077559,306,1618774001222255945,,70020000,43094,13,4
48,1618774001443310813,307,1618774001442733049,,70020200,42887,13,4
49,1618774001569055850,308,1618774001568136930,,70020400,43181,13,4
50,1618774001834698737,309,1618774001834225893,,70020600,43492,13,4
51,1618774002081090391,310,1618774002080363988,,70020800,44050,13,4
52,1618774002236438835,311,1618774002236102104,,70021000,44332,13,4
53,1618774002457516636,312,1618774002456943988,,70021200,44795,13,4
54,1618774002631092142,313,1618774002630656003,,70021400,45139,13,4
55,1618774002836059674,314,1618774002835768938,,70021600,45569,13,4
56,1618774003043701204,315,1618774003043483972,,70021800,45891,13,4
57,1618774003236030482,316,1618774003235507965,,70022000,46145,13,4
58,1618774003435360979,317,1618774003434947967,,70022200,46429,13,4
59,1618774003636930033,318,1618774003636584043,,70022400,46560,13,4
60,1618774003775031232,319,1618774003774475097,,70022600,46950,13,4
61,1618774003943896622,320,1618774003942207098,,70022800,47073,13,4
62,1618774004234669866,321,1618774004234426021,,70023000,47559,13,4
63,1618774004369847103,322,1618774004369000911,,70023200,47876,13,4
64,1618774004543798273,323,1618774004543308019,,70023400,48302,13,4
65,1618774004738892818,324,1618774004738051891,,70023600,48681,13,4
66,1618774004983564912,325,1618774004982487916,,70023800,49068,13,4
67,1618774005142301273,326,1618774005141395092,,70024000,49102,13,4
68,1618774005427409161,327,1618774005426048040,,70024200,49218,13,4
69,1618774005633147029,328,1618774005632540941,,70024400,49642,13,4
70,1618774005741466093,329,1618774005740375041,,70024600,49347,13,4
71,1618774006041714259,330,1618774006040366888,,70024800,49681,13,4
72,1618774006244783151,331,1618774006243623971,,70025000,49855,13,4
73,1618774006458549065,332,1618774006457945108,,70025200,50241,13,4
74,1618774006638488643,333,1618774006635596036,,70025400,50391,13,4
75,1618774006834224399,334,1618774006833527088,,70025600,50639,13,4
76,1618774007044922568,335,1618774007044455051,,70025800,50642,13,4
77,1618774007266815124,336,1618774007265405893,,70026000,50780,13,4
78,1618774007444400204,337,1618774007443650007,,70026200,51233,13,4
79,1618774007629853964,338,1618774007629185914,,70026400,50981,13,4
80,1618774007838348202,339,1618774007837873935,,70026600,51218,13,4
81,1618774008024388163,340,1618774008024075984,,70026800,51501,13,4
82,1618774008234863315,341,1618774008234060049,,70027000,51224,13,4
83,1618774008578241946,342,1618774008577585935,,70027200,51663,13,4
84,1618774008757253839,343,1618774008756836891,,70027400,51674,13,4
85,1618774008926952223,344,1618774008926256895,,70027600,51626,13,4
86,1618774009098945040,345,1618774009098354101,,70027800,51588,13,4
87,1618774009270085212,346,1618774009269699096,,70028000,51638,13,4
88,1618774009444069471,347,1618774009443680047,,70028200,51587,13,4
89,1618774009638534294,348,1618774009638125896,,70028400,51817,13,4
90,1618774009844144892,349,1618774009843630075,,70028600,51960,13,4
91,1618774009981838042,350,1618774009979974031,,70028800,52039,13,4
92,1618774010238163421,351,1618774010237562894,,70029000,52059,13,4
93,1618774010458712112,352,1618774010457065105,,70029200,51906,13,4
94,1618774010634156336,353,1618774010633394956,,70029400,51924,13,4
95,1618774010838782253,354,1618774010838171005,,70029600,52029,13,4
96,1618774011045819535,355,1618774011044848918,,70029800,51938,13,4
97,1618774011237166116,356,1618774011236603975,,70030000,52029,13,4
98,1618774011438480759,357,1618774011438031911,,70030200,52268,13,4
99,1618774011644305287,358,1618774011638633966,,70030400,52056,13,4
100,1618774011840118709,359,1618774011839435100,,70030600,52461,13,4
101,1618774012042891557,360,1618774012042567014,,70030800,52443,13,4
102,1618774012244438851,361,1618774012243972063,,70031000,52668,13,4
103,1618774012459887266,362,1618774012458892107,,70031200,52494,13,4
104,1618774012631394398,363,1618774012631002902,,70031400,52598,13,4
105,1618774012837663808,364,1618774012837018966,,70031600,52603,13,4
106,1618774013049764148,365,1618774013049159049,,70031800,52498,13,4
107,1618774013234963145,366,1618774013234462022,,70032000,52395,13,4
108,1618774013445187023,367,1618774013444824934,,70032200,52407,13,4
109,1618774013633120470,368,1618774013631903886,,70032400,52489,13,4
110,1618774013837036534,369,1618774013836695909,,70032600,52809,13,4
111,1618774014040957398,370,1618774014040502071,,70032800,53230,13,4
112,1618774014242520532,371,1618774014239434957,,70033000,53202,13,4
113,1618774014451477381,372,1618774014450717926,,70033200,53269,13,4
114,1618774014631501155,373,1618774014629574060,,70033400,53157,13,4
115,1618774014840332655,374,1618774014839936971,,70033600,53032,13,4
116,1618774015043147489,375,1618774015042815923,,70033800,52758,13,4
117,1618774015236207389,376,1618774015235943078,,70034000,52963,13,4
118,1618774015439325020,377,1618774015438977956,,70034200,53151,13,4
119,1618774015638414675,378,1618774015637423038,,70034400,53538,13,4
120,1618774015844825914,379,1618774015844393968,,70034600,53737,13,4
121,1618774016043446974,380,1618774016040817022,,70034800,53879,13,4
122,1618774016239583226,381,1618774016239262104,,70035000,54119,13,4
123,1618774016454673546,382,1618774016454364061,,70035200,54103,13,4
124,1618774016627078476,383,1618774016623691082,,70035400,54170,13,4
125,1618774016838615912,384,1618774016838229894,,70035600,53898,13,4
126,1618774017047257004,385,1618774017046624898,,70035800,54160,13,4
127,1618774017239537352,386,1618774017239128112,,70036000,54122,13,4
128,1618774017435916527,387,1618774017435470104,,70036200,54434,13,4
129,1618774017636965047,388,1618774017636681079,,70036400,54698,13,4
130,1618774017837456104,389,1618774017837171077,,70036600,55044,13,4
131,1618774018049404790,390,1618774018048604965,,70036800,55454,13,4
132,1618774018242084899,391,1618774018241719961,,70037000,55368,13,4
133,1618774018459752702,392,1618774018459404945,,70037200,55344,13,4
134,1618774018635464713,393,1618774018634767055,,70037400,55477,13,4
135,1618774018837872458,394,1618774018837198972,,70037600,55386,13,4
136,1618774019055174582,395,1618774019054450988,,70037800,55574,13,4
137,1618774019237238281,396,1618774019236783027,,70038000,55666,13,4
138,1618774019489661322,397,1618774019484285116,,70038200,55696,13,4
139,1618774019644033822,398,1618774019643244981,,70038400,55814,13,4
140,1618774019841957412,399,1618774019841466903,,70038600,56174,13,4
141,1618774020041596562,400,1618774020041119098,,70038800,56153,13,4
142,1618774020239808869,401,1618774020237478971,,70039000,56355,13,4
143,1618774020496594459,402,1618774020494946002,,70039200,56404,13,4
144,1618774020630751110,403,1618774020630271911,,70039400,56439,13,4
145,1618774020836806398,404,1618774020836298942,,70039600,56585,13,4
146,1618774021048104465,405,1618774021046619892,,70039800,56502,13,4
147,1618774021236097819,406,1618774021235712051,,70040000,56534,13,4
148,1618774021441242605,407,1618774021438898086,,70040200,56636,13,4
149,1618774021647100830,408,1618774021643898963,,70040400,57000,13,4
150,1618774021838653083,409,1618774021838295936,,70040600,57056,13,4
151,1618774022043352156,410,1618774022042706012,,70040800,57473,13,4
152,1618774022239501912,411,1618774022239140033,,70041000,57399,13,4
153,1618774022497127154,412,1618774022494417905,,70041200,58003,13,4
154,1618774022629218022,413,1618774022628875970,,70041400,57885,13,4
155,1618774022837388503,414,1618774022836945056,,70041600,57934,13,4
156,1618774023046317319,415,1618774023045845985,,70041800,57797,13,4
157,1618774023279030804,416,1618774023277297973,,70042000,58033,13,4
158,1618774023476653294,417,1618774023476106882,,70042200,57624,13,4
159,1618774023637841245,418,1618774023637387990,,70042400,57478,13,4
160,1618774023836656841,419,1618774023836200952,,70042600,57425,13,4
161,1618774024042495641,420,1618774024039841890,,70042800,57206,13,4
162,1618774024245425711,421,1618774024245079040,,70043000,57522,13,4
163,1618774024503964654,422,1618774024503335952,,70043200,57525,13,4
164,1618774024643006212,423,1618774024641566038,,70043400,57594,13,4
165,1618774024841906100,424,1618774024841572046,,70043600,57323,13,4
166,1618774025037555803,425,1618774025036317110,,70043800,57346,13,4
167,1618774025239152763,426,1618774025238692045,,70044000,56952,13,4
168,1618774025496068438,427,1618774025488333940,,70044200,56691,13,4
169,1618774025640545518,428,1618774025639539003,,70044400,56367,13,4
170,1618774025838640572,429,1618774025838184118,,70044600,56406,13,4
171,1618774026037620846,430,1618774026037143945,,70044800,56699,13,4
172,1618774026237609323,431,1618774026237210988,,70045000,56794,13,4
173,1618774026494879029,432,1618774026494143962,,70045200,56831,13,4
174,1618774026665632338,433,1618774026664423942,,70045400,56984,13,4
175,1618774026842808602,434,1618774026842319965,,70045600,57084,13,4
176,1618774027042239839,435,1618774027041466951,,70045800,56998,13,4
177,1618774027239920411,436,1618774027239322900,,70046000,56997,13,4
178,1618774027475674439,437,1618774027475296974,,70046200,56654,13,4
179,1618774027637612533,438,1618774027637125968,,70046400,56393,13,4
180,1618774027842913998,439,1618774027841964006,,70046600,56240,13,4
181,1618774028035765570,440,1618774028035401105,,70046800,56272,13,4
182,1618774028236509406,441,1618774028234302997,,70047000,56354,13,4
183,1618774028451986462,442,1618774028451369047,,70047200,56559,13,4
184,1618774028638553836,443,1618774028638180971,,70047400,56640,13,4
185,1618774028856279882,444,1618774028855519056,,70047600,57034,13,4
186,1618774029040468182,445,1618774029037621974,,70047800,57428,13,4
187,1618774029236334151,446,1618774029235889911,,70048000,57179,13,4
188,1618774029434673663,447,1618774029434210062,,70048200,57258,13,4
189,1618774029634020448,448,1618774029632589101,,70048400,56718,13,4
190,1618774029840631504,449,1618774029839590072,,70048600,56688,13,4
191,1618774030041659512,450,1618774030040007114,,70048800,56328,13,4
192,1618774030246949680,451,1618774030246336936,,70049000,56676,13,4
193,1618774030504871318,452,1618774030502228975,,70049200,56834,13,4
194,1618774030639560759,453,1618774030638230085,,70049400,57239,13,4
195,1618774030839590901,454,1618774030839230060,,70049600,57425,13,4
196,1618774031051944788,455,1618774031051644086,,70049800,57889,13,4
197,1618774031238049007,456,1618774031237520933,,70050000,57836,13,4
198,1618774031488074988,457,1618774031485127925,,70050200,58221,13,4
199,1618774031629289084,458,1618774031628006935,,70050400,57800,13,4
200,1618774031836964536,459,1618774031836458921,,70050600,57593,13,4
201,1618774032037623312,460,1618774032037230014,,70050800,57721,13,4
202,1618774032239569598,461,1618774032239181041,,70051000,57670,13,4
203,1618774032499913512,462,1618774032496325016,,70051200,57912,13,4
204,1618774032641707185,463,1618774032638858079,,70051400,58495,13,4
205,1618774032837810060,464,1618774032837414026,,70051600,58458,13,4
206,1618774033056935140,465,1618774033056231021,,70051800,58854,13,4
207,1618774033234574975,466,1618774033234358072,,70052000,59012,13,4
208,1618774033476578350,467,1618774033475994110,,70052200,59102,13,4
209,1618774033637368141,468,1618774033636627912,,70052400,59429,13,4
210,1618774033854636888,469,1618774033854130029,,70052600,59337,13,4
211,1618774033981035328,470,1618774033978998899,,70052800,58869,13,4
212,1618774034236492319,471,1618774034236119985,,70053000,59376,13,4
213,1618774034494082743,472,1618774034493410110,,70053200,59599,13,4
214,1618774034629192585,473,1618774034628808975,,70053400,60019,13,4
215,1618774034838938043,474,1618774034838515996,,70053600,60144,13,4
216,1618774035046993063,475,1618774035046128034,,70053800,60270,13,4
217,1618774035240631067,476,1618774035237392902,,70054000,60548,13,4
218,1618774035475771437,477,1618774035475331068,,70054200,60735,13,4
219,1618774035637483858,478,1618774035636384963,,70054400,60664,13,4
220,1618774035844317099,479,1618774035839427947,,70054600,60666,13,4
221,1618774036036610439,480,1618774036036241054,,70054800,60635,13,4
0,1618774036245001057,481,1618774036244400978,,70055000,61128,13,4
1,1618774036503722792,482,1618774036502727031,,70055200,61172,13,4
2,1618774036638237218,483,1618774036637840032,,70055400,61454,13,4
3,1618774036838399877,484,1618774036837929964,,70055600,61419,13,4
4,1618774037036809600,485,1618774037036226987,,70055800,61706,13,4
5,1618774037299071994,486,1618774037297713041,,70056000,61563,13,4
6,1618774037472747504,487,1618774037472146987,,70056200,61593,13,4
7,1618774037641414870,488,1618774037640180110,,70056400,61553,13,4
8,1618774037835842923,489,1618774037833581924,,70056600,61609,13,4
9,1618774038044732090,490,1618774038041187047,,70056800,61834,13,4
10,1618774038281332105,491,1618774038280512094,,70057000,62129,13,4
11,1618774038621764725,492,1618774038619775056,,70057200,62531,13,4
12,1618774038756925258,493,1618774038756472110,,70057400,62663,13,4
13,1618774038923958508,494,1618774038923557996,,70057600,62698,13,4
14,1618774039101364413,495,1618774039100816965,,70057800,62810,13,4
15,1618774039270309071,496,1618774039265464067,,70058000,62750,13,4
16,1618774039482953273,497,1618774039481762886,,70058200,62651,13,4
17,1618774039641369045,498,1618774039640273094,,70058400,62944,13,4
18,1618774039842810798,499,1618774039842245101,,70058600,63133,13,4
19,1618774040040226911,500,1618774040039912939,,70058800,63267,13,4
20,1618774040236092400,501,1618774040235743999,,70059000,63523,13,4
21,1618774040493377339,502,1618774040490966081,,70059200,64085,13,4
22,1618774040625306217,503,1618774040624948024,,70059400,64010,13,4
23,1618774040840290613,504,1618774040837003946,,70059600,64105,13,4
24,1618774041045051640,505,1618774041044557094,,70059800,63928,13,4
25,1618774041238385888,506,1618774041237916946,,70060000,63962,13,4
26,1618774041476087932,507,1618774041475408077,,70060200,64112,13,4
27,1618774041632711981,508,1618774041632272005,,70060400,64713,13,4
28,1618774041842614758,509,1618774041838141918,,70060600,65143,13,4
29,1618774042039035790,510,1618774042038503885,,70060800,64818,13,4
30,1618774042247572174,511,1618774042246598005,,70061000,65147,13,4
31,1618774042415488757,512,1618774042415008068,,70061200,65166,13,4
32,1618774042679685151,513,1618774042675149917,,70061400,64849,13,4
33,1618774042840651589,514,1618774042837312936,,70061600,64943,13,4
34,1618774043041903606,515,1618774043040579080,,70061800,64878,13,4
35,1618774043236257896,516,1618774043235856056,,70062000,64831,13,4
36,1618774043489000918,517,1618774043488102912,,70062200,65430,13,4
37,1618774043570494195,518,1618774043570101022,,70062400,65882,13,4
38,1618774043837952261,519,1618774043837313890,,70062600,66049,13,4
39,1618774044043413861,520,1618774044041944980,,70062800,66385,13,4
40,1618774044237838298,521,1618774044237384080,,70063000,65971,13,4
41,1618774044494326436,522,1618774044491708040,,70063200,65538,13,4
42,1618774044664716721,523,1618774044664206027,,70063400,65236,13,4
43,1618774044839492245,524,1618774044839178085,,70063600,65318,13,4
44,1618774045040150829,525,1618774045039581060,,70063800,65377,13,4
45,1618774045238628235,526,1618774045236409902,,70064000,66039,13,4
46,1618774045437424054,527,1618774045436517953,,70064200,66164,13,4
47,1618774045637921383,528,1618774045636910915,,70064400,66276,13,4
48,1618774045841442007,529,1618774045840337038,,70064600,66427,13,4
49,1618774046038702625,530,1618774046038019895,,70064800,66142,13,4
50,1618774046237189887,531,1618774046236330032,,70065000,65580,13,4
51,1618774046492962124,532,1618774046490891933,,70065200,65264,13,4
52,1618774046628272230,533,1618774046627166032,,70065400,65379,13,4
53,1618774046835342857,534,1618774046834747076,,70065600,65097,13,4
54,1618774047041348640,535,1618774047040827989,,70065800,65354,13,4
55,1618774047144086704,536,1618774047143764972,,70066000,65172,13,4
56,1618774047476784763,537,1618774047476344108,,70066200,65299,13,4
57,1618774047569205758,538,1618774047568361043,,70066400,65604,13,4
58,1618774047741927661,539,1618774047741173982,,70066600,65501,13,4
59,1618774048037676151,540,1618774048037229061,,70066800,65390,13,4
60,1618774048178972171,541,1618774048178371906,,70067000,65363,13,4
61,1618774048482342675,542,1618774048481477022,,70067200,65353,13,4
62,1618774048627452613,543,1618774048627001047,,70067400,65142,13,4
63,1618774048837751790,544,1618774048837485074,,70067600,65069,13,4
64,1618774049040567712,545,1618774049040008068,,70067800,65345,13,4
65,1618774049242130558,546,1618774049237812995,,70068000,65421,13,4
66,1618774049480013954,547,1618774049478928089,,70068200,65686,13,4
67,1618774049566484334,548,1618774049565876007,,70068400,66051,13,4
68,1618774049837655322,549,1618774049836841106,,70068600,66009,13,4
69,1618774050039692396,550,1618774050039011955,,70068800,65955,13,4
70,1618774050238190282,551,1618774050237761020,,70069000,65978,13,4
71,1618774050493097362,552,1618774050490978956,,70069200,65856,13,4
72,1618774050663819470,553,1618774050663292884,,70069400,66042,13,4
73,1618774050837600552,554,1618774050837143898,,70069600,66105,13,4
74,1618774051042046174,555,1618774051041316986,,70069800,65957,13,4
75,1618774051242723767,556,1618774051241574048,,70070000,66322,13,4
76,1618774051439206530,557,1618774051438654899,,70070200,66483,13,4
77,1618774051636043387,558,1618774051635198116,,70070400,66315,13,4
78,1618774051841569534,559,1618774051841249942,,70070600,66819,13,4
79,1618774051972710123,560,1618774051971446990,,70070800,66478,13,4
80,1618774052238243181,561,1618774052237890005,,70071000,66705,13,4
81,1618774052453688460,562,1618774052453135013,,70071200,67017,13,4
82,1618774052624617776,563,1618774052624155998,,70071400,66954,13,4
83,1618774052837067795,564,1618774052836695909,,70071600,67057,13,4
84,1618774053048196606,565,1618774053047782897,,70071800,67292,13,4
85,1618774053281254778,566,1618774053278960943,,70072000,67102,13,4
86,1618774053460862535,567,1618774053460344076,,70072200,67382,13,4
87,1618774053642904089,568,1618774053641999959,,70072400,67740,13,4
88,1618774053771166991,569,1618774053769686937,,70072600,67521,13,4
89,1618774053972920852,570,1618774053971888065,,70072800,67598,13,4
90,1618774054153073400,571,1618774054151577949,,70073000,67591,13,4
91,1618774054487099002,572,1618774054486470937,,70073200,67772,13,4
92,1618774054639301171,573,1618774054638986110,,70073400,67800,13,4
93,1618774054836730053,574,1618774054835565090,,70073600,68148,13,4
94,1618774055036726018,575,1618774055036402940,,70073800,68403,13,4
95,1618774055237677638,576,1618774055237040042,,70074000,68475,13,4
96,1618774055485613677,577,1618774055483844995,,70074200,68669,13,4
97,1618774055573820513,578,1618774055570430994,,70074400,68341,13,4
98,1618774055837447507,579,1618774055837129116,,70074600,68346,13,4
99,1618774056038474811,580,1618774056038053989,,70074800,68345,13,4
100,1618774056237103423,581,1618774056236618041,,70075000,68621,13,4
101,1618774056497700532,582,1618774056496165990,,70075200,68723,13,4
102,1618774056649922094,583,1618774056649404048,,70075400,69004,13,4
103,1618774056838354729,584,1618774056838038921,,70075600,69477,13,4
104,1618774057038290500,585,1618774057037879943,,70075800,69809,13,4
105,1618774057237968947,586,1618774057237507104,,70076000,70234,13,4
106,1618774057479751257,587,1618774057478450059,,70076200,69845,13,4
107,1618774057633783583,588,1618774057633292913,,70076400,69825,13,4
108,1618774057851617601,589,1618774057849517107,,70076600,69601,13,4
109,1618774058030732762,590,1618774058030219078,,70076800,69875,13,4
110,1618774058237331657,591,1618774058236828088,,70077000,69813,13,4
111,1618774058455022789,592,1618774058453386068,,70077200,70225,13,4
112,1618774058662191148,593,1618774058661714076,,70077400,70434,13,4
113,1618774058887702670,594,1618774058882122039,,70077600,70768,13,4
114,1618774059060004843,595,1618774059058491945,,70077800,71500,13,4
115,1618774059244646153,596,1618774059244273900,,70078000,71373,13,4
116,1618774059476807808,597,1618774059476337909,,70078200,71223,13,4
117,1618774059638974071,598,1618774059638315916,,70078400,71224,13,4
118,1618774059838086735,599,1618774059837601900,,70078600,71454,13,4
119,1618774060044182122,600,1618774060043879985,,70078800,71338,13,4
120,1618774060245073579,601,1618774060244129896,,70079000,71597,13,4
121,1618774060501507027,602,1618774060501095056,,70079200,71573,13,4
122,1618774060637600718,603,1618774060637224912,,70079400,72183,13,4
123,1618774060839071144,604,1618774060838645935,,70079600,72315,13,4
124,1618774061036737188,605,1618774061036350011,,70079800,72208,13,4
125,1618774061249927750,606,1618774061248359918,,70080000,72131,13,4
126,1618774061479046781,607,1618774061478552103,,70080200,72191,13,4
127,1618774061528017970,608,1618774061527693986,,70080400,72363,13,4
128,1618774061838241398,609,1618774061836920976,,70080600,72465,13,4
129,1618774062037803713,610,1618774062037033081,,70080800,72462,13,4
130,1618774062246604140,611,1618774062246237993,,70081000,72292,13,4
131,1618774062474245830,612,1618774062467538118,,70081200,72731,13,4
132,1618774062637713300,613,1618774062637284040,,70081400,72942,13,4
133,1618774062840520549,614,1618774062840156078,,70081600,72811,13,4
134,1618774063038791290,615,1618774063037687063,,70081800,72636,13,4
135,1618774063238617360,616,1618774063238152027,,70082000,73028,13,4
136,1618774063476251178,617,1618774063475739002,,70082200,73296,13,4
137,1618774063637424856,618,1618774063636971950,,70082400,73332,13,4
138,1618774063859216575,619,1618774063855909109,,70082600,73387,13,4
139,1618774064027325518,620,1618774064026202917,,70082800,73017,13,4
140,1618774064246176026,621,1618774064241274118,,70083000,73048,13,4
141,1618774064461268619,622,1618774064460251092,,70083200,73335,13,4
142,1618774064629158929,623,1618774064628837108,,70083400,73787,13,4
143,1618774064836455517,624,1618774064835812091,,70083600,73644,13,4
144,1618774065042905990,625,1618774065042464017,,70083800,73626,13,4
145,1618774065241842551,626,1618774065241506099,,70084000,73641,13,4
146,1618774065443816614,627,1618774065441540956,,70084200,73458,13,4
147,1618774065637672323,628,1618774065636821985,,70084400,73414,13,4
148,1618774065839289251,629,1618774065837084054,,70084600,73718,13,4
149,1618774066037644603,630,1618774066037091016,,70084800,74009,13,4
150,1618774066251645407,631,1618774066251265048,,70085000,74156,13,4
151,1618774066500138012,632,1618774066499620914,,70085200,74305,13,4
152,1618774066644548081,633,1618774066644226074,,70085400,73880,13,4
153,1618774066840061203,634,1618774066835609912,,70085600,74062,13,4
154,1618774067035167045,635,1618774067034379005,,70085800,74200,13,4
155,1618774067205889408,636,1618774067205429077,,70086000,74192,13,4
156,1618774067477207827,637,1618774067476687908,,70086200,74327,13,4
157,1618774067640705730,638,1618774067639971971,,70086400,74509,13,4
158,1618774067837569148,639,1618774067837145090,,70086600,74761,13,4
159,1618774068037094373,640,1618774068036487102,,70086800,74702,13,4
160,1618774068235391323,641,1618774068235075950,,70087000,74533,13,4
161,1618774068622610849,642,1618774068622149944,,70087200,74022,13,4
162,1618774068794519630,643,1618774068793596982,,70087400,74221,13,4
163,1618774068926328087,644,1618774068926047086,,70087600,74475,13,4
164,1618774069106058345,645,1618774069103137969,,70087800,74586,13,4
165,1618774069275674679,646,1618774069274056911,,70088000,74720,13,4
166,1618774069486229578,647,1618774069483938932,,70088200,74992,13,4
167,1618774069637488796,648,1618774069636826038,,70088400,75206,13,4
168,1618774069844717638,649,1618774069844134092,,70088600,75281,13,4
169,1618774070045199223,650,1618774070044851064,,70088800,75308,13,4
170,1618774070240549906,651,1618774070239758014,,70089000,74805,13,4
171,1618774070494402479,652,1618774070493810892,,70089200,75059,13,4
172,1618774070630950269,653,1618774070629198074,,70089400,75372,13,4
173,1618774070836869936,654,1618774070836471080,,70089600,75553,13,4
174,1618774071039012966,655,1618774071038568019,,70089800,75685,13,4
175,1618774071236777190,656,1618774071236257076,,70090000,76013,13,4
176,1618774071477126225,657,1618774071476691961,,70090200,75509,13,4
177,1618774071570605024,658,1618774071568589925,,70090400,75852,13,4
178,1618774071845028851,659,1618774071844641923,,70090600,76227,13,4
179,1618774071970257643,660,1618774071969734907,,70090800,76431,13,4
180,1618774072251029895,661,1618774072249710083,,70091000,76940,13,4
181,1618774072504414512,662,1618774072503695964,,70091200,76949,13,4
182,1618774072639386172,663,1618774072638614892,,70091400,77439,13,4
183,1618774072848478355,664,1618774072844089984,,70091600,77379,13,4
184,1618774073050781200,665,1618774073050456047,,70091800,77502,13,4
185,1618774073237652651,666,1618774073237171888,,70092000,77502,13,4
186,1618774073448280642,667,1618774073447901010,,70092200,77406,13,4
187,1618774073574382397,668,1618774073572222948,,70092400,77751,13,4
188,1618774073845546922,669,1618774073844888925,,70092600,77820,13,4
189,1618774074041161072,670,1618774074038316011,,70092800,78274,13,4
190,1618774074237035457,671,1618774074236491918,,70093000,78407,13,4
191,1618774074491599707,672,1618774074490015029,,70093200,78620,13,4
192,1618774074666899637,673,1618774074665086030,,70093400,78851,13,4
193,1618774074843187416,674,1618774074838231086,,70093600,78939,13,4
194,1618774075037369731,675,1618774075036685943,,70093800,78630,13,4
195,1618774075234644942,676,1618774075234251976,,70094000,78917,13,4
196,1618774075484149270,677,1618774075483691930,,70094200,78925,13,4
197,1618774075633429461,678,1618774075633002042,,70094400,79015,13,4
198,1618774075845489160,679,1618774075845117092,,70094600,79556,13,4
199,1618774076039981280,680,1618774076039658069,,70094800,79531,13,4
200,1618774076241387575,681,1618774076240865945,,70095000,80050,13,4
201,1618774076503012822,682,1618774076500529050,,70095200,80220,13,4
202,1618774076638198700,683,1618774076637634038,,70095400,79567,13,4
203,1618774076838931047,684,1618774076838397979,,70095600,79796,13,4
204,1618774077055827043,685,1618774077054792881,,70095800,79662,13,4
205,1618774077235122883,686,1618774077234062910,,70096000,79587,13,4
206,1618774077479221033,687,1618774077478698968,,70096200,80048,13,4
207,1618774077637483935,688,1618774077637191057,,70096400,80643,13,4
208,1618774077841332540,689,1618774077840652942,,70096600,80743,13,4
209,1618774078053435376,690,1618774078053042888,,70096800,80843,13,4
210,1618774078244860616,691,1618774078243700981,,70097000,81085,13,4
211,1618774078501601948,692,1618774078501229047,,70097200,80697,13,4
212,1618774078635089707,693,1618774078634665966,,70097400,80508,13,4
213,1618774078843591338,694,1618774078843102931,,70097600,80917,13,4
214,1618774079043012463,695,1618774079042403936,,70097800,80987,13,4
215,1618774079238134561,696,1618774079237725019,,70098000,81492,13,4
216,1618774079449742400,697,1618774079448132038,,70098200,81936,13,4
217,1618774079553010470,698,1618774079552515983,,70098400,81973,13,4
218,1618774079853572889,699,1618774079846419095,,70098600,82235,13,4
219,1618774079933901638,700,1618774079933501005,,70098800,82295,13,4
0,1618774080238002027,701,1618774080236926078,,70099000,82275,13,4
1,1618774080495054605,702,1618774080489906072,,70099200,82518,13,4
2,1618774080663281152,703,1618774080662801027,,70099400,82047,13,4
3,1618774080842611778,704,1618774080839524030,,70099600,82566,13,4
4,1618774081049242226,705,1618774081048742055,,70099800,82769,13,4
5,1618774081244742356,706,1618774081243077039,,70100000,83202,13,4
6,1618774081467309147,707,1618774081460777044,,70100200,83540,13,4
7,1618774081638030295,708,1618774081637514114,,70100400,83779,13,4
8,1618774081847118477,709,1618774081846606969,,70100600,83806,13,4
9,1618774081934535137,710,1618774081934144973,,70100800,83737,13,4
10,1618774082233749499,711,1618774082233329057,,70101000,83662,13,4
11,1618774082492755406,712,1618774082491095066,,70101200,83646,13,4
12,1618774082577776797,713,1618774082576838970,,70101400,84297,13,4
13,1618774082748712866,714,1618774082746993064,,70101600,84642,13,4
14,1618774082963716462,715,1618774082963355064,,70101800,84815,13,4
15,1618774083276254227,716,1618774083275569915,,70102000,86042,13,4
16,1618774083454374114,717,1618774083453545093,,70102200,85227,13,4
17,1618774083643781830,718,1618774083643331050,,70102400,84999,13,4
18,1618774083838301535,719,1618774083838015079,,70102600,85431,13,4
19,1618774084034297814,720,1618774084033976078,,70102800,86091,13,4
20,1618774084241531871,721,1618774084241132974,,70103000,86500,13,4
21,1618774084468215666,722,1618774084467433929,,70103200,86204,13,4
22,1618774084636630605,723,1618774084636183977,,70103400,87346,13,4
23,1618774084838769731,724,1618774084838418960,,70103600,87613,13,4
24,1618774085038719678,725,1618774085037904977,,70103800,88074,13,4
25,1618774085237861239,726,1618774085236819982,,70104000,88239,13,4
26,1618774085425306986,727,1618774085424792051,,70104200,88392,13,4
27,1618774085640030251,728,1618774085639763116,,70104400,88909,13,4
28,1618774085838987324,729,1618774085838490009,,70104600,88597,13,4
29,1618774086037740645,730,1618774086037055969,,70104800,89440,13,4
30,1618774086238753516,731,1618774086236922979,,70105000,89883,13,4
31,1618774086493642548,732,1618774086492168903,,70105200,90360,13,4
32,1618774086633449962,733,1618774086633023023,,70105400,91109,13,4
33,1618774086739715885,734,1618774086739403963,,70105600,91828,13,4
34,1618774086930093305,735,1618774086928822994,,70105800,92143,13,4
35,1618774087238718587,736,1618774087238224983,,70106000,91981,13,4
36,1618774087363162386,737,1618774087362658977,,70106200,92833,13,4
37,1618774087539102215,738,1618774087538641929,,70106400,92971,13,4
38,1618774087842514736,739,1618774087841931104,,70106600,94201,13,4
39,1618774088039099423,740,1618774088038124084,,70106800,95152,13,4
40,1618774088245984378,741,1618774088244184017,,70107000,96375,13,4
41,1618774088504759203,742,1618774088501183986,,70107200,97653,13,4
42,1618774088634891430,743,1618774088634499073,,70107400,98924,13,4
43,1618774088849143316,744,1618774088848767995,,70107600,99610,13,4
44,1618774089033200474,745,1618774089032721996,,70107800,99854,13,4
45,1618774089239220497,746,1618774089238697052,,70108000,100931,13,4
46,1618774089441369351,747,1618774089440661907,,70108200,101857,13,4
47,1618774089639496214,748,1618774089638551950,,70108400,102961,13,4
48,1618774089837829005,749,1618774089837450027,,70108600,104247,13,4
49,1618774090037019689,750,1618774090036453962,,70108800,105838,13,4
50,1618774090250776994,751,1618774090250318050,,70109000,107167,13,4
51,1618774090504363955,752,1618774090503736972,,70109200,108927,13,4
52,1618774090675751402,753,1618774090675316095,,70109400,109866,13,4
53,1618774090840868796,754,1618774090840500116,,70109600,111189,13,4
54,1618774091039974836,755,1618774091039582967,,70109800,112289,13,4
55,1618774091236328377,756,1618774091235907077,,70110000,113762,13,4
56,1618774091451009624,757,1618774091450469970,,70110200,114911,13,4
57,1618774091642141861,758,1618774091641604900,,70110400,116647,13,4
58,1618774091878098073,759,1618774091877649068,,70110600,118301,13,4
59,1618774092035562157,760,1618774092035192012,,70110800,119728,13,4
60,1618774092236793885,761,1618774092236242055,,70111000,121712,13,4
61,1618774092492341247,762,1618774092491583108,,70111200,123214,13,4
62,1618774092633908830,763,1618774092633371114,,70111400,125021,13,4
63,1618774092887682007,764,1618774092887260913,,70111600,126737,13,4
64,1618774093037868861,765,1618774093037008047,,70111800,127737,13,4
65,1618774093236758572,766,1618774093236402988,,70112000,129594,13,4
66,1618774093432491895,767,1618774093432200908,,70112200,131378,13,4
67,1618774093646038375,768,1618774093645565032,,70112400,132943,13,4
68,1618774093862025821,769,1618774093861380100,,70112600,134612,13,4
69,1618774093950541182,770,1618774093950150012,,70112800,136261,13,4
70,1618774094236676440,771,1618774094236093044,,70113000,138016,13,4
71,1618774094491704230,772,1618774094490986108,,70113200,139899,13,4
72,1618774094661652097,773,1618774094661187887,,70113400,141546,13,4
73,1618774094881628860,774,1618774094881047964,,70113600,143548,13,4
74,1618774095050964990,775,1618774095049581050,,70113800,145427,13,4
75,1618774095237557773,776,1618774095237108945,,70114000,146781,13,4
76,1618774095439437848,777,1618774095438975095,,70114200,148443,13,4
77,1618774095638812987,778,1618774095637074947,,70114400,149573,13,4
78,1618774095843077002,779,1618774095842510938,,70114600,151247,13,4
79,1618774096038883576,780,1618774096037930011,,70114800,153290,13,4
80,1618774096244879854,781,1618774096244497060,,70115000,154955,13,4
81,1618774096507546969,782,1618774096499836921,,70115200,156760,13,4
82,1618774096637474196,783,1618774096636231899,,70115400,158370,13,4
83,1618774096839708750,784,1618774096838944911,,70115600,159813,13,4
84,1618774097037856542,785,1618774097037307024,,70115800,161258,13,4
85,1618774097256594598,786,1618774097255837917,,70116000,162565,13,4
86,1618774097467220220,787,1618774097465154886,,70116200,164256,13,4
87,1618774097639638142,788,1618774097637331008,,70116400,165883,13,4
88,1618774097886765443,789,1618774097878611087,,70116600,167306,13,4
89,1618774098037715912,790,1618774098037341117,,70116800,169152,13,4
90,1618774098326326922,791,1618774098320899009,,70117000,170830,13,4
91,1618774098619794197,792,1618774098619374990,,70117200,172405,13,4
92,1618774098756472713,793,1618774098756021022,,70117400,174186,13,4
93,1618774098966053556,794,1618774098965002059,,70117600,175720,13,4
94,1618774099136535046,795,1618774099135771036,,70117800,177520,13,4
95,1618774099269352153,796,1618774099268716096,,70118000,178970,13,4
96,1618774099480803058,797,1618774099480365037,,70118200,180463,13,4
97,1618774099636134893,798,1618774099635802984,,70118400,181991,13,4
98,1618774099843598816,799,1618774099842196941,,70118600,183175,13,4
99,1618774100035513037,800,1618774100035002946,,70118800,184463,13,4
100,1618774100234947762,801,1618774100234515905,,70119000,184999,13,4
101,1618774100457024069,802,1618774100456526041,,70119200,185341,13,4
102,1618774100662931512,803,1618774100662220954,,70119400,185831,13,4
103,1618774100894424402,804,1618774100892528057,,70119600,185760,13,4
104,1618774101043216958,805,1618774101042447090,,70119800,186317,13,4
105,1618774101238783682,806,1618774101238114118,,70120000,186115,13,4
106,1618774101436173523,807,1618774101435743093,,70120200,186221,13,4
107,1618774101639047079,808,1618774101638232946,,70120400,185685,13,4
108,1618774101879656476,809,1618774101879081964,,70120600,185120,13,4
109,1618774102037332857,810,1618774102036953926,,70120800,184751,13,4
110,1618774102241015951,811,1618774102240075111,,70121000,183825,13,4
111,1618774102412235999,812,1618774102407557964,,70121200,183384,13,4
112,1618774102627685119,813,1618774102627466917,,70121400,182384,13,4
113,1618774102880512336,814,1618774102879643917,,70121600,181702,13,4
114,1618774103043809847,815,1618774103042300939,,70121800,180892,13,4
115,1618774103237486317,816,1618774103236752033,,70122000,180245,13,4
116,1618774103446577156,817,1618774103445988893,,70122200,179237,13,4
117,1618774103635976264,818,1618774103635591030,,70122400,178714,13,4
118,1618774103841957405,819,1618774103841480970,,70122600,178390,13,4
119,1618774104037751499,820,1618774104037415981,,70122800,178318,13,4
120,1618774104238358113,821,1618774104237926006,,70123000,178046,13,4
121,1618774104499739383,822,1618774104493860960,,70123200,178100,13,4
122,1618774104632760786,823,1618774104631603002,,70123400,177799,13,4
123,1618774104841904939,824,1618774104841284990,,70123600,177798,13,4
124,1618774105036979964,825,1618774105036503076,,70123800,177984,13,4
125,1618774105238762499,826,1618774105238221883,,70124000,178065,13,4
126,1618774105439820299,827,1618774105439429044,,70124200,178675,13,4
127,1618774105636969778,828,1618774105636367082,,70124400,178657,13,4
128,1618774105843490238,829,1618774105843116044,,70124600,179223,13,4
129,1618774106038725236,830,1618774106038204908,,70124800,179954,13,4
130,1618774106236935623,831,1618774106235558986,,70125000,181003,13,4
131,1618774106489790074,832,1618774106489211082,,70125200,181990,13,4
132,1618774106629423048,833,1618774106628742933,,70125400,183003,13,4
133,1618774106888465788,834,1618774106886980056,,70125600,184390,13,4
134,1618774107058536349,835,1618774107056293964,,70125800,185623,13,4
135,1618774107233235197,836,1618774107232788085,,70126000,187286,13,4
136,1618774107418756928,837,1618774107418453931,,70126200,188526,13,4
137,1618774107634714580,838,1618774107634249925,,70126400,190196,13,4
138,1618774107879823333,839,1618774107879288911,,70126600,191483,13,4
139,1618774108038701492,840,1618774108037853956,,70126800,193120,13,4
140,1618774108215520621,841,1618774108213865995,,70127000,194706,13,4
141,1618774108467738725,842,1618774108466650009,,70127200,196393,13,4
142,1618774108633057600,843,1618774108632642030,,70127400,198052,13,4
143,1618774108837753376,844,1618774108837495088,,70127600,199730,13,4
144,1618774109039969113,845,1618774109039529085,,70127800,201433,13,4
145,1618774109233871544,846,1618774109233509063,,70128000,202848,13,4
146,1618774109441561877,847,1618774109441258907,,70128200,204366,13,4
147,1618774109639213072,848,1618774109638859987,,70128400,205969,13,4
148,1618774109888426060,849,1618774109880642890,,70128600,208144,13,4
149,1618774110037378142,850,1618774110037092924,,70128800,209944,13,4
150,1618774110232710264,851,1618774110232155084,,70129000,211680,13,4
151,1618774110489833021,852,1618774110489296913,,70129200,213166,13,4
152,1618774110647998350,853,1618774110647660017,,70129400,214794,13,4
153,1618774110840748573,854,1618774110839559078,,70129600,216466,13,4
154,1618774111041755140,855,1618774111039314985,,70129800,218285,13,4
155,1618774111236711791,856,1618774111236351013,,70130000,220112,13,4
156,1618774111434920865,857,1618774111434462070,,70130200,222063,13,4
157,1618774111640790962,858,1618774111639947891,,70130400,223457,13,4
158,1618774111881348486,859,1618774111880913019,,70130600,225403,13,4
159,1618774112038589297,860,1618774112036755084,,70130800,227146,13,4
160,1618774112238437223,861,1618774112237922906,,70131000,229265,13,4
161,1618774112497069834,862,1618774112495285034,,70131200,230999,13,4
162,1618774112632223070,863,1618774112631799936,,70131400,232863,13,4
163,1618774112848380155,864,1618774112845532894,,70131600,234469,13,4
164,1618774113045923986,865,1618774113045593976,,70131800,236336,13,4
165,1618774113240145982,866,1618774113239774942,,70132000,238243,13,4
166,1618774113450778101,867,1618774113450200080,,70132200,240056,13,4
167,1618774113642794246,868,1618774113642266988,,70132400,241820,13,4
168,1618774113839860489,869,1618774113839509010,,70132600,243414,13,4
169,1618774114038739895,870,1618774114038223028,,70132800,244802,13,4
170,1618774114244423105,871,1618774114243866920,,70133000,246468,13,4
171,1618774114464491104,872,1618774114464138031,,70133200,247846,13,4
172,1618774114634609794,873,1618774114633450984,,70133400,249115,13,4
173,1618774114879131739,874,1618774114878473997,,70133600,251224,13,4
174,1618774115038945072,875,1618774115037894964,,70133800,252462,13,4
175,1618774115237275784,876,1618774115236723899,,70134000,253490,13,4
176,1618774115440458505,877,1618774115439887046,,70134200,255037,13,4
177,1618774115639094573,878,1618774115638663053,,70134400,256098,13,4
178,1618774115844107258,879,1618774115843713045,,70134600,257557,13,4
179,1618774116037135925,880,1618774116036669015,,70134800,259099,13,4
180,1618774116235532367,881,1618774116234805107,,70135000,260479,13,4
181,1618774116493595739,882,1618774116492916107,,70135200,261770,13,4
182,1618774116631407038,883,1618774116631042003,,70135400,262607,13,4
183,1618774116879900923,884,1618774116878937959,,70135600,263637,13,4
184,1618774117038997139,885,1618774117038499116,,70135800,264135,13,4
185,1618774117238230832,886,1618774117237001895,,70136000,265509,13,4
186,1618774117436220057,887,1618774117435738086,,70136200,266106,13,4
187,1618774117639962738,888,1618774117639563083,,70136400,267330,13,4
